~Version Information
 VERS.                2.00:   CWLS log ASCII Standard -VERSION 2.00
 WRAP.                  NO:   One line per frame      
~Well Information Block
#MNEM.UNIT                     Data                     Description
#----.----   ----------------------------------------   -------------------------------
 STRT.M                                     2542.3368 : Starting Depth
 STOP.M                                     2933.0142 : Ending Depth
 STEP.M                                        0.0762 : Level Spacing
 NULL.                                      -999.2500 : Absent Value
 COMP.       GEOTHERMIE DELFT                         : Company
 WELL.       GT-01                                    : Well
 FLD .       DELFT                                    : Field
 LOC .       LOC400#3                                 : Location
 PROV.                                                : Province
 CTRY.       NETHERLANDS                              : Country
 SRVC.       Baker Hughes                             : Service Company
 DATE.       10-SEP-2023                              : Log Date
 UWI .                                                : Unique Well ID
 LIC .                                                : License Number
~Curve Information Block
#MNEM    .UNIT        API Codes     Curve Description
#--------.--------   LG--CV-CL--M   ---------------------------------------------------
 DEPT    .M          99 995 99  1 : Depth
 BIT     .in         70 282  1  1 : Bit size
 CALX    .in         70 280 13  1 : Caliper from X-axis of XY caliper(s)
 CHT     .lbf        99 635 99  1 : Cable head tension
 CN      .pu         42 890  1  1 : Compensated neutron porosity
 CNC     .pu         42 995 99  1 : Borehole size corrected compensated neutron porosity
 GR      .gAPI       30 310  1  1 : Gamma ray
 PE      .b/e        45 358  1  1 : Photo electric cross-section
 SPD     .m/min      99 636 99  1 : Speed
 TEN     .lbf        99 635 99  1 : Differential tension
 TTEN    .lbf        99 635 99  1 : Total tension
 WTBH    .degC       99 995 99  1 : Temperature of borehole
 ZCOR    .g/cm3      45 356 99  1 : Density correction
 ZDEN    .g/cm3      45 350  1  1 : Formation bulk density
 ZDNC    .g/cm3      94 995 99  1 : Borehole size/mud weight corrected density
~Parameter Information Block
#MNEM.UNIT                     Value                    Description
#----.----   ----------------------------------------   -------------------------------
 HID1.       COMPENSATED Z-DENSILOG^S                 : Header Identifier
 HID2.       COMPENSATED NEUTRON LOG                  : Header Identifier
 HID3.       GAMMA RAY LOG                            : Header Identifier
 FILE.       207823                                   : File Number
 CMT1.       FIELD PRINT                              : Comment 1  
 CMT2.       1:1000 SCALE                             : Comment 2  
 CMT3.       1:200 SCALE                              : Comment 3  
 FL  .       LAT:    52 DEG 0 MIN 1.562 SEC N         : Field Location
 FL1 .       LONG: 4 DEG 22 MIN 10.9 SEC E            : Field Location 1
 OS1 .       DSL,BHP                                  : Other Services Line 1
 OS2 .       HDIL/XMAC                                : Other Services Line 2
 OS3 .       MREX                                     : Other Services Line 3
 OS4 .       GXPL/UXPL                                : Other Services Line 4
 PDAT.       MSL                                      : Permanent Datum
 EPD .M      7.46                                     : Elevation Of Perm. Datum
 LMF .       DF                                       : Log Measured From
 APD .M      7.46                                     : Above Permanent Datum
 DMF .       DF                                       : Drilling Measured From
 EKB .M      7.46                                     : Elevation Of Kelly Bushing
 EDF .M      7.46                                     : Elevation Of Derrick Floor
 EGL .M      -0.54                                    : Elevation Of Ground Level
 RUN .       3                                        : Run Number
 TRIP.       1                                        : Trip Number
 TDD .M      2931.0                                   : Total Depth - Driller
 TDL .M      2930.8                                   : Total Depth - Logger
 BLI .M      2920.5                                   : Bottom Log Interval
 TLI .M      2570.0                                   : Top Log Interval
 CSIZ.IN     9.625                                    : Casing Size
 CBDR.M      2572.0                                   : Casing Bottom - Driller
 CBLO.M      2570.0                                   : Casing Bottom - Logger
 BS  .IN     8.5                                      : Bit Size
 DFT .       OBM                                      : Drilling Fluid Type
 DFD .G/C3   1.12                                     : Drilling Fluid Density
 DFV .CP     21                                       : Drilling Fluid Viscosity
 DFL .ML     1.4                                      : Drilling Fluid Loss
 MSS .       ACTIVE PIT                               : Mud Sample Source
 MFSS.       N/A                                      : Mud Filtrate Sample Source
 MCSS.       N/A                                      : Mud Cake Sample Source
 TSC .       41 HRS 30 MINS                           : Time Since Circulation
 MRT .DEGC   83.1                                     : Maximum Recorded Temperature
 LUN .       Z006823                                  : Logging Unit Number
 LUL .       DEN HELDER                               : Logging Unit Location
 ENGI.       HEKEL/BUHNE/BUJOR                        : Engineer's Name
 WITN.       AUKE BARNHOORN                           : Witness' Name
 TSTR.       /ZDL/CN/GR/                              : Title Service Mnemonic
 TSTG.       NA                                       : Title Service Mnemonic
 STUS.       FINAL                                    : Status
 LCNM.       Baker Hughes                             : Logging Company Name
 LCC .       150                                      : Logging Company Code
 OPMD.       OH.WIRE                                  : Operation Mode
 PANA.       HEKEL/BUHNE/BUJOR                        : Processing Analyst
 PCON.       Baker Hughes                             : Processing Contractor
 APIN.                                                : API Serial Number
 LATI.DEG    0.0000                                   : Latitude
 LONG.DEG    0.0000                                   : Longitude
~Other information
GENERAL                                                                         
* LOG CORRELATED TO HDIL-XMAC RUN 1.1 FROM 09-SEP-2023.                         
* MAXIMUM DEVIATION OVER OPEN HOLE LOGGED INTERVAL IS 50.7 DEG AT 2700 M.       
* LAST CIRCULATION AT TD STOPPED AT  21 HRS ON 08-SEP-23 AFTER 3.25 HRS.        
* TOOLSTRING REACHED TD AT 14:30 HRS ON 10-SEP-2023.                            
TEMPERATURE:                                                                    
* MAXIMUM RECORDED TEMPERATURE FROM TTRM WAS 83.1 DEG C AT 2850 M.              
MUD DATA                                                                        
* MUD TYPE: OBM                                                                 
* MUD WEIGHT: 1.12 SG                                                           
* OIL WATER RATIO = 66.09 / 33.91                                               
* SOLIDS FRACTION = 10.9 %                                                      
* WATER % BY VOLUME = 29.5 %                                                    
* WATER PHASE CHLORIDES = 169491 MG/L                                           
* WHOLE MUD CHLORIDE CONTENT = 50000 MG/L                                       
* WHOLE MUD NACL EQUIVALENT = 79000 PPM                                         
GAMMA RAY / SPECTRALOG                                                          
* GAMMA RAY RUN DECENTRALISED.                                                  
* SPECTRALOG RECORDED BUT NOT PRESENTED FROM THIS RUN.                          
ZDL/CN                                                                          
* ZDL/CN DATA PRESENTED ON LIMESTONE SCALES.                                    
* CNC CURVE IS CALIPER AND SALINITY CORRECTED AND PRESENTED ON LIMESTONE MATRIX 
* NACL EQUIVALENT = 79000 PPM.                                                  
* ZDL/CN/GR RECORDED AT SAMPLE RATE OF 4 SPF.                                   
* DENSITY CURVE ZDNC IS BOREHOLE CORRECTED.                                     
* ZDL/CN LOGGED TOGETHER WITH MREX PASSES. PRESENTED LOG IS FROM                
  PP + LIGHT OIL PASS, RECORDED AT 1 M/MIN.                                     
#  Curve Data
~A    DEPT            BIT             CALX            CHT             CN              CNC             GR              PE              SPD             TEN             TTEN            WTBH            ZCOR            ZDEN            ZDNC        
# ...
       2700.3756          8.5000          8.5709       1253.5511         18.4652         18.1973         51.3839          1.9004          0.9989        -44.3372       4964.3032         80.9722         -0.0864          2.4931          2.4889
       2700.4518          8.5000          8.5674       1238.0453         17.5806         17.3214         52.0873          1.8189          0.9991        -75.1817       4936.4170         80.9730         -0.0678          2.4601          2.4559
       2700.5280          8.5000          8.5672       1223.2758         16.5340         16.2827         52.4294          1.7636          0.9995        -98.2790       4917.8940         80.9950         -0.0465          2.4487          2.4444
       2700.6042          8.5000          8.5704       1210.2661         15.3537         15.1098         52.1435          1.7257          0.9999       -114.3270       4907.6880         81.0234         -0.0257          2.4517          2.4474
       2700.6804          8.5000          8.5760       1199.0936         14.1894         13.9523         51.3858          1.6999          1.0002       -127.4204       4901.4614         81.0301         -0.0082          2.4617          2.4574
       2700.7566          8.5000          8.5818       1190.4888         13.2136         12.9823         50.5106          1.6826          1.0004       -140.6735       4896.0107         81.0408          0.0063          2.4741          2.4698
       2700.8328          8.5000          8.5856       1185.0615         12.5330         12.3065         49.7761          1.6698          1.0004       -156.4095       4889.0283         81.0285          0.0171          2.4848          2.4805
       2700.9090          8.5000          8.5855       1182.8098         12.1530         11.9305         49.2342          1.6563          1.0003       -175.5825       4879.6392         80.9941          0.0219          2.4897          2.4855
       2700.9852          8.5000          8.5811       1184.2683         11.9934         11.7752         48.8344          1.6373          1.0003       -195.2523       4870.8149         80.9662          0.0227          2.4901          2.4858
       2701.0614          8.5000          8.5740       1190.9078         11.9349         11.7213         48.4969          1.6101          1.0004       -208.0874       4869.6694         80.9336          0.0212          2.4875          2.4833
       2701.1376          8.5000          8.5678       1204.0361         11.8895         11.6800         48.1259          1.5756          1.0007       -208.3560       4881.3721         80.8853          0.0191          2.4839          2.4796
       2701.2138          8.5000          8.5653       1223.2935         11.8537         11.6460         47.6542          1.5379          1.0010       -195.4048       4905.8467         80.8377          0.0170          2.4804          2.4762
       2701.2900          8.5000          8.5665       1245.9937         11.8814         11.6727         47.0676          1.5041          1.0010       -174.7987       4936.9502         80.7942          0.0156          2.4776          2.4734
       2701.3662          8.5000          8.5698       1267.5013         12.0151         11.8031         46.4178          1.4815          1.0008       -153.2108       4967.8140         80.7840          0.0146          2.4752          2.4710
       2701.4424          8.5000          8.5731       1284.3347         12.2569         12.0405         45.7968          1.4754          1.0004       -134.6686       4994.5156         80.8079          0.0138          2.4720          2.4677
       2701.5186          8.5000          8.5741       1295.5072         12.5674         12.3473         45.2893          1.4861          1.0000       -120.9828       5015.4863         80.8509          0.0128          2.4661          2.4618
       2701.5948          8.5000          8.5725       1302.4271         12.8735         12.6513         44.8704          1.5094          0.9996       -112.7720       5030.3682         80.8971          0.0113          2.4566          2.4523
       2701.6710          8.5000          8.5697       1307.6892         13.1068         12.8840         44.4207          1.5385          0.9994       -108.7808       5040.6348         80.9564          0.0095          2.4439          2.4396
       2701.7472          8.5000          8.5669       1313.1804         13.2359         13.0135         43.7656          1.5676          0.9993       -108.3431       5047.1196         80.9985          0.0082          2.4305          2.4262
       2701.8234          8.5000          8.5646       1319.0054         13.2707         13.0495         42.8225          1.5930          0.9993       -110.8008       5050.6426         81.0204          0.0082          2.4195          2.4152
       2701.8996          8.5000          8.5634       1325.1722         13.2576         13.0372         41.7515          1.6132          0.9994       -111.1866       5056.2148         81.0340          0.0100          2.4140          2.4097
       2701.9758          8.5000          8.5632       1332.2168         13.2661         13.0458         40.8887          1.6287          0.9997       -100.6121       5072.4146         81.0645          0.0139          2.4156          2.4112
       2702.0520          8.5000          8.5633       1341.2019         13.3798         13.1583         40.5671          1.6404          1.0001        -71.1986       5106.3481         81.0573          0.0194          2.4239          2.4195
       2702.1282          8.5000          8.5634       1352.3979         13.6532         13.4291         40.9018          1.6490          1.0004        -22.8197       5157.1230         81.0522          0.0256          2.4367          2.4324
       2702.2044          8.5000          8.5632       1363.9552         14.0817         13.8538         41.7577          1.6545          1.0004         33.7312       5213.1768         81.0366          0.0311          2.4506          2.4463
       2702.2806          8.5000          8.5623       1372.1992         14.6015         14.3696         42.8343          1.6564          0.9999         80.9778       5257.0391         81.0115          0.0349          2.4612          2.4569
       2702.3568          8.5000          8.5614       1374.5292         15.1047         14.8691         43.8236          1.6545          0.9995        106.3983       5277.0518         81.0048          0.0362          2.4649          2.4606
       2702.4330          8.5000          8.5610       1370.5699         15.4842         15.2456         44.5257          1.6488          0.9994        107.8131       5272.3350         80.9777          0.0349          2.4601          2.4558
       2702.5092          8.5000          8.5607       1362.0017         15.6914         15.4513         44.8971          1.6386          0.9998         93.4303       5252.2197         80.9450          0.0316          2.4472          2.4429
       2702.5854          8.5000          8.5599       1352.5632         15.7561         15.5160         44.9641          1.6219          1.0005         77.7260       5231.6484         80.9222          0.0274          2.4289          2.4246
       2702.6616          8.5000          8.5582       1346.1301         15.7738         15.5349         44.7329          1.5959          1.0012         72.6052       5222.2178         80.8976          0.0236          2.4086          2.4043
       2702.7378          8.5000          8.5551       1343.8286         15.8448         15.6074         44.1410          1.5595          1.0015         78.8713       5224.0337         80.8598          0.0207          2.3892          2.3849
       2702.8140          8.5000          8.5510       1344.2278         16.0118         15.7760         43.1540          1.5151          1.0013         89.5436       5229.6055         80.8246          0.0192          2.3727          2.3684
       2702.8902          8.5000          8.5469       1344.8263         16.2269         15.9923         41.8469          1.4681          1.0009         95.0296       5229.3633         80.8074          0.0187          2.3604          2.3561
