~Version Information
 VERS.                2.00:   CWLS log ASCII Standard -VERSION 2.00
 WRAP.                  NO:   One line per frame      
~Well Information Block
#MNEM.UNIT                     Data                     Description
#----.----   ----------------------------------------   -------------------------------
 STRT.M                                     2542.3368 : Starting Depth
 STOP.M                                     2933.0142 : Ending Depth
 STEP.M                                        0.0762 : Level Spacing
 NULL.                                      -999.2500 : Absent Value
 COMP.       GEOTHERMIE DELFT                         : Company
 WELL.       GT-01                                    : Well
 FLD .       DELFT                                    : Field
 LOC .       LOC400#3                                 : Location
 PROV.                                                : Province
 CTRY.       NETHERLANDS                              : Country
 SRVC.       Baker Hughes                             : Service Company
 DATE.       10-SEP-2023                              : Log Date
 UWI .                                                : Unique Well ID
 LIC .                                                : License Number
~Curve Information Block
#MNEM    .UNIT        API Codes     Curve Description
#--------.--------   LG--CV-CL--M   ---------------------------------------------------
 DEPT    .M          99 995 99  1 : Depth
 BIT     .in         70 282  1  1 : Bit size
 CALX    .in         70 280 13  1 : Caliper from X-axis of XY caliper(s)
 CHT     .lbf        99 635 99  1 : Cable head tension
 CN      .pu         42 890  1  1 : Compensated neutron porosity
 CNC     .pu         42 995 99  1 : Borehole size corrected compensated neutron porosity
 GR      .gAPI       30 310  1  1 : Gamma ray
 PE      .b/e        45 358  1  1 : Photo electric cross-section
 SPD     .m/min      99 636 99  1 : Speed
 TEN     .lbf        99 635 99  1 : Differential tension
 TTEN    .lbf        99 635 99  1 : Total tension
 WTBH    .degC       99 995 99  1 : Temperature of borehole
 ZCOR    .g/cm3      45 356 99  1 : Density correction
 ZDEN    .g/cm3      45 350  1  1 : Formation bulk density
 ZDNC    .g/cm3      94 995 99  1 : Borehole size/mud weight corrected density
~Parameter Information Block
#MNEM.UNIT                     Value                    Description
#----.----   ----------------------------------------   -------------------------------
 HID1.       COMPENSATED Z-DENSILOG^S                 : Header Identifier
 HID2.       COMPENSATED NEUTRON LOG                  : Header Identifier
 HID3.       GAMMA RAY LOG                            : Header Identifier
 FILE.       207823                                   : File Number
 CMT1.       FIELD PRINT                              : Comment 1  
 CMT2.       1:1000 SCALE                             : Comment 2  
 CMT3.       1:200 SCALE                              : Comment 3  
 FL  .       LAT:    52 DEG 0 MIN 1.562 SEC N         : Field Location
 FL1 .       LONG: 4 DEG 22 MIN 10.9 SEC E            : Field Location 1
 OS1 .       DSL,BHP                                  : Other Services Line 1
 OS2 .       HDIL/XMAC                                : Other Services Line 2
 OS3 .       MREX                                     : Other Services Line 3
 OS4 .       GXPL/UXPL                                : Other Services Line 4
 PDAT.       MSL                                      : Permanent Datum
 EPD .M      7.46                                     : Elevation Of Perm. Datum
 LMF .       DF                                       : Log Measured From
 APD .M      7.46                                     : Above Permanent Datum
 DMF .       DF                                       : Drilling Measured From
 EKB .M      7.46                                     : Elevation Of Kelly Bushing
 EDF .M      7.46                                     : Elevation Of Derrick Floor
 EGL .M      -0.54                                    : Elevation Of Ground Level
 RUN .       3                                        : Run Number
 TRIP.       1                                        : Trip Number
 TDD .M      2931.0                                   : Total Depth - Driller
 TDL .M      2930.8                                   : Total Depth - Logger
 BLI .M      2920.5                                   : Bottom Log Interval
 TLI .M      2570.0                                   : Top Log Interval
 CSIZ.IN     9.625                                    : Casing Size
 CBDR.M      2572.0                                   : Casing Bottom - Driller
 CBLO.M      2570.0                                   : Casing Bottom - Logger
 BS  .IN     8.5                                      : Bit Size
 DFT .       OBM                                      : Drilling Fluid Type
 DFD .G/C3   1.12                                     : Drilling Fluid Density
 DFV .CP     21                                       : Drilling Fluid Viscosity
 DFL .ML     1.4                                      : Drilling Fluid Loss
 MSS .       ACTIVE PIT                               : Mud Sample Source
 MFSS.       N/A                                      : Mud Filtrate Sample Source
 MCSS.       N/A                                      : Mud Cake Sample Source
 TSC .       41 HRS 30 MINS                           : Time Since Circulation
 MRT .DEGC   83.1                                     : Maximum Recorded Temperature
 LUN .       Z006823                                  : Logging Unit Number
 LUL .       DEN HELDER                               : Logging Unit Location
 ENGI.       HEKEL/BUHNE/BUJOR                        : Engineer's Name
 WITN.       AUKE BARNHOORN                           : Witness' Name
 TSTR.       /ZDL/CN/GR/                              : Title Service Mnemonic
 TSTG.       NA                                       : Title Service Mnemonic
 STUS.       FINAL                                    : Status
 LCNM.       Baker Hughes                             : Logging Company Name
 LCC .       150                                      : Logging Company Code
 OPMD.       OH.WIRE                                  : Operation Mode
 PANA.       HEKEL/BUHNE/BUJOR                        : Processing Analyst
 PCON.       Baker Hughes                             : Processing Contractor
 APIN.                                                : API Serial Number
 LATI.DEG    0.0000                                   : Latitude
 LONG.DEG    0.0000                                   : Longitude
~Other information
GENERAL                                                                         
* LOG CORRELATED TO HDIL-XMAC RUN 1.1 FROM 09-SEP-2023.                         
* MAXIMUM DEVIATION OVER OPEN HOLE LOGGED INTERVAL IS 50.7 DEG AT 2700 M.       
* LAST CIRCULATION AT TD STOPPED AT  21 HRS ON 08-SEP-23 AFTER 3.25 HRS.        
* TOOLSTRING REACHED TD AT 14:30 HRS ON 10-SEP-2023.                            
TEMPERATURE:                                                                    
* MAXIMUM RECORDED TEMPERATURE FROM TTRM WAS 83.1 DEG C AT 2850 M.              
MUD DATA                                                                        
* MUD TYPE: OBM                                                                 
* MUD WEIGHT: 1.12 SG                                                           
* OIL WATER RATIO = 66.09 / 33.91                                               
* SOLIDS FRACTION = 10.9 %                                                      
* WATER % BY VOLUME = 29.5 %                                                    
* WATER PHASE CHLORIDES = 169491 MG/L                                           
* WHOLE MUD CHLORIDE CONTENT = 50000 MG/L                                       
* WHOLE MUD NACL EQUIVALENT = 79000 PPM                                         
GAMMA RAY / SPECTRALOG                                                          
* GAMMA RAY RUN DECENTRALISED.                                                  
* SPECTRALOG RECORDED BUT NOT PRESENTED FROM THIS RUN.                          
ZDL/CN                                                                          
* ZDL/CN DATA PRESENTED ON LIMESTONE SCALES.                                    
* CNC CURVE IS CALIPER AND SALINITY CORRECTED AND PRESENTED ON LIMESTONE MATRIX 
* NACL EQUIVALENT = 79000 PPM.                                                  
* ZDL/CN/GR RECORDED AT SAMPLE RATE OF 4 SPF.                                   
* DENSITY CURVE ZDNC IS BOREHOLE CORRECTED.                                     
* ZDL/CN LOGGED TOGETHER WITH MREX PASSES. PRESENTED LOG IS FROM                
  PP + LIGHT OIL PASS, RECORDED AT 1 M/MIN.                                     
#  Curve Data
~A    DEPT            BIT             CALX            CHT             CN              CNC             GR              PE              SPD             TEN             TTEN            WTBH            ZCOR            ZDEN            ZDNC        
# ...
       2772.9180          8.5000          8.3965       1236.4480         16.8630         16.7348         11.0317          1.3926          1.0005        -60.5715       5099.7998         81.9867          0.0192          2.3050          2.3008
       2772.9942          8.5000          8.3976       1243.8619         16.9054         16.7764         11.0291          1.3875          1.0006        -47.4411       5116.1968         82.0511          0.0203          2.2986          2.2944
       2773.0704          8.5000          8.3986       1250.5028         16.9743         16.8443         11.0571          1.3832          1.0005        -35.0349       5131.1069         82.0895          0.0216          2.2950          2.2909
       2773.1466          8.5000          8.3984       1255.1223         17.0811         16.9510         11.1112          1.3825          1.0006        -27.6540       5140.3330         82.0993          0.0230          2.2942          2.2901
       2773.2228          8.5000          8.3969       1256.9072         17.1933         17.0642         11.1835          1.3872          1.0011        -23.7772       5145.6660         82.1062          0.0243          2.2956          2.2914
       2773.2990          8.5000          8.3939       1257.7906         17.2531         17.1260         11.2482          1.3972          1.0022        -15.6887       5154.9082         82.0965          0.0254          2.2985          2.2943
       2773.3752          8.5000          8.3906       1261.5861         17.2367         17.1122         11.2849          1.4104          1.0035          5.3438       5176.4727         82.0709          0.0261          2.3020          2.2978
       2773.4514          8.5000          8.3885       1271.1044         17.1679         17.0452         11.2905          1.4233          1.0044         40.7028       5211.1084         82.0311          0.0263          2.3052          2.3010
       2773.5276          8.5000          8.3881       1285.1803         17.1026         16.9802         11.2775          1.4322          1.0042         81.4763       5249.3701         81.9799          0.0261          2.3067          2.3025
       2773.6038          8.5000          8.3891       1298.3301         17.1064         16.9832         11.2666          1.4343          1.0028        111.6447       5275.2710         81.9075          0.0252          2.3054          2.3012
       2773.6800          8.5000          8.3908       1304.1538         17.2174         17.0928         11.2904          1.4283          1.0007        119.0763       5277.4414         81.8716          0.0239          2.3005          2.2963
       2773.7562          8.5000          8.3925       1299.5057         17.4211         17.2948         11.3726          1.4149          0.9985        102.6578       5255.9092         81.8614          0.0223          2.2925          2.2884
       2773.8324          8.5000          8.3935       1285.1637         17.6632         17.5357         11.4981          1.3962          0.9969         71.1181       5220.3857         81.8645          0.0211          2.2830          2.2789
       2773.9086          8.5000          8.3937       1264.4185         17.9025         17.7744         11.6110          1.3763          0.9963         37.0536       5183.9209         81.8938          0.0207          2.2740          2.2699
       2773.9848          8.5000          8.3940       1242.2944         18.1359         18.0072         11.6578          1.3593          0.9966          9.9290       5155.8594         81.9342          0.0215          2.2671          2.2630
       2774.0610          8.5000          8.3965       1224.4039         18.3973         18.2662         11.6198          1.3487          0.9975         -6.2432       5139.7334         81.9698          0.0232          2.2625          2.2584
       2774.1372          8.5000          8.4023       1214.3369         18.7511         18.6150         11.5096          1.3455          0.9989        -10.0908       5136.3184         82.0376          0.0252          2.2596          2.2555
       2774.2134          8.5000          8.4102       1213.3525         19.2380         19.0948         11.3623          1.3483          1.0005         -1.9411       5144.6704         82.0934          0.0268          2.2572          2.2532
       2774.2896          8.5000          8.4173       1220.2760         19.8438         19.6941         11.2071          1.3539          1.0020         15.6919       5161.7314         82.1204          0.0277          2.2548          2.2507
       2774.3658          8.5000          8.4207       1231.5269         20.4851         20.3320         11.0648          1.3592          1.0027         36.7801       5181.1729         82.1167          0.0278          2.2525          2.2484
       2774.4420          8.5000          8.4188       1241.8218         21.0233         20.8716         10.9530          1.3630          1.0023         52.4782       5194.2578         82.0957          0.0273          2.2512          2.2472
       2774.5182          8.5000          8.4124       1245.8617         21.3472         21.2012         10.8820          1.3657          1.0009         54.4507       5193.2144         82.0720          0.0266          2.2519          2.2479
       2774.5944          8.5000          8.4050       1241.3253         21.4535         21.3142         10.8401          1.3681          0.9992         39.4456       5175.6426         82.0735          0.0261          2.2550          2.2509
       2774.6706          8.5000          8.4008       1231.0186         21.3919         21.2561         10.7955          1.3705          0.9979         12.8383       5147.6895         82.0739          0.0257          2.2602          2.2562
       2774.7468          8.5000          8.4027       1221.7653         21.1614         21.0238         10.7016          1.3725          0.9977        -13.2477       5121.7593         82.0599          0.0257          2.2671          2.2630
       2774.8230          8.5000          8.4110       1219.7261         20.7236         20.5787         10.5212          1.3735          0.9985        -28.1874       5108.1323         82.0720          0.0259          2.2753          2.2711
       2774.8992          8.5000          8.4232       1226.9464         20.0725         19.9177         10.2519          1.3741          0.9999        -29.7605       5108.3208         82.1093          0.0264          2.2843          2.2802
       2774.9754          8.5000          8.4359       1240.5355         19.2766         19.1124          9.9454          1.3754          1.0012        -24.6148       5115.0801         82.1299          0.0273          2.2940          2.2899
       2775.0516          8.5000          8.4458       1254.8623         18.4797         18.3095          9.6977          1.3787          1.0022        -23.0863       5117.9487         82.1454          0.0284          2.3039          2.2997
       2775.1278          8.5000          8.4507       1264.8043         17.8482         17.6761          9.6007          1.3843          1.0026        -32.9573       5109.5337         82.1680          0.0296          2.3133          2.3091
       2775.2040          8.5000          8.4502       1268.2007         17.4921         17.3217          9.6950          1.3909          1.0024        -55.2322       5089.4692         82.1567          0.0305          2.3211          2.3169
       2775.2802          8.5000          8.4455       1266.4717         17.4255         17.2588          9.9416          1.3963          1.0017        -83.8168       5064.3789         82.1122          0.0310          2.3264          2.3222
       2775.3564          8.5000          8.4389       1263.0718         17.5768         17.4146         10.2570          1.3980          1.0007       -109.7164       5043.4048         82.0770          0.0308          2.3287          2.3245
       2775.4326          8.5000          8.4318       1260.8901         17.8183         17.6608         10.5534          1.3948          0.9995       -125.1534       5034.0508         82.0404          0.0302          2.3282          2.3240
