~Version Information
 VERS.                2.00:   CWLS log ASCII Standard -VERSION 2.00
 WRAP.                  NO:   One line per frame      
~Well Information Block
#MNEM.UNIT                     Data                     Description
#----.----   ----------------------------------------   -------------------------------
 STRT.M                                     2542.3368 : Starting Depth
 STOP.M                                     2933.0142 : Ending Depth
 STEP.M                                        0.0762 : Level Spacing
 NULL.                                      -999.2500 : Absent Value
 COMP.       GEOTHERMIE DELFT                         : Company
 WELL.       GT-01                                    : Well
 FLD .       DELFT                                    : Field
 LOC .       LOC400#3                                 : Location
 PROV.                                                : Province
 CTRY.       NETHERLANDS                              : Country
 SRVC.       Baker Hughes                             : Service Company
 DATE.       10-SEP-2023                              : Log Date
 UWI .                                                : Unique Well ID
 LIC .                                                : License Number
~Curve Information Block
#MNEM    .UNIT        API Codes     Curve Description
#--------.--------   LG--CV-CL--M   ---------------------------------------------------
 DEPT    .M          99 995 99  1 : Depth
 BIT     .in         70 282  1  1 : Bit size
 CALX    .in         70 280 13  1 : Caliper from X-axis of XY caliper(s)
 CHT     .lbf        99 635 99  1 : Cable head tension
 CN      .pu         42 890  1  1 : Compensated neutron porosity
 CNC     .pu         42 995 99  1 : Borehole size corrected compensated neutron porosity
 GR      .gAPI       30 310  1  1 : Gamma ray
 PE      .b/e        45 358  1  1 : Photo electric cross-section
 SPD     .m/min      99 636 99  1 : Speed
 TEN     .lbf        99 635 99  1 : Differential tension
 TTEN    .lbf        99 635 99  1 : Total tension
 WTBH    .degC       99 995 99  1 : Temperature of borehole
 ZCOR    .g/cm3      45 356 99  1 : Density correction
 ZDEN    .g/cm3      45 350  1  1 : Formation bulk density
 ZDNC    .g/cm3      94 995 99  1 : Borehole size/mud weight corrected density
~Parameter Information Block
#MNEM.UNIT                     Value                    Description
#----.----   ----------------------------------------   -------------------------------
 HID1.       COMPENSATED Z-DENSILOG^S                 : Header Identifier
 HID2.       COMPENSATED NEUTRON LOG                  : Header Identifier
 HID3.       GAMMA RAY LOG                            : Header Identifier
 FILE.       207823                                   : File Number
 CMT1.       FIELD PRINT                              : Comment 1  
 CMT2.       1:1000 SCALE                             : Comment 2  
 CMT3.       1:200 SCALE                              : Comment 3  
 FL  .       LAT:    52 DEG 0 MIN 1.562 SEC N         : Field Location
 FL1 .       LONG: 4 DEG 22 MIN 10.9 SEC E            : Field Location 1
 OS1 .       DSL,BHP                                  : Other Services Line 1
 OS2 .       HDIL/XMAC                                : Other Services Line 2
 OS3 .       MREX                                     : Other Services Line 3
 OS4 .       GXPL/UXPL                                : Other Services Line 4
 PDAT.       MSL                                      : Permanent Datum
 EPD .M      7.46                                     : Elevation Of Perm. Datum
 LMF .       DF                                       : Log Measured From
 APD .M      7.46                                     : Above Permanent Datum
 DMF .       DF                                       : Drilling Measured From
 EKB .M      7.46                                     : Elevation Of Kelly Bushing
 EDF .M      7.46                                     : Elevation Of Derrick Floor
 EGL .M      -0.54                                    : Elevation Of Ground Level
 RUN .       3                                        : Run Number
 TRIP.       1                                        : Trip Number
 TDD .M      2931.0                                   : Total Depth - Driller
 TDL .M      2930.8                                   : Total Depth - Logger
 BLI .M      2920.5                                   : Bottom Log Interval
 TLI .M      2570.0                                   : Top Log Interval
 CSIZ.IN     9.625                                    : Casing Size
 CBDR.M      2572.0                                   : Casing Bottom - Driller
 CBLO.M      2570.0                                   : Casing Bottom - Logger
 BS  .IN     8.5                                      : Bit Size
 DFT .       OBM                                      : Drilling Fluid Type
 DFD .G/C3   1.12                                     : Drilling Fluid Density
 DFV .CP     21                                       : Drilling Fluid Viscosity
 DFL .ML     1.4                                      : Drilling Fluid Loss
 MSS .       ACTIVE PIT                               : Mud Sample Source
 MFSS.       N/A                                      : Mud Filtrate Sample Source
 MCSS.       N/A                                      : Mud Cake Sample Source
 TSC .       41 HRS 30 MINS                           : Time Since Circulation
 MRT .DEGC   83.1                                     : Maximum Recorded Temperature
 LUN .       Z006823                                  : Logging Unit Number
 LUL .       DEN HELDER                               : Logging Unit Location
 ENGI.       HEKEL/BUHNE/BUJOR                        : Engineer's Name
 WITN.       AUKE BARNHOORN                           : Witness' Name
 TSTR.       /ZDL/CN/GR/                              : Title Service Mnemonic
 TSTG.       NA                                       : Title Service Mnemonic
 STUS.       FINAL                                    : Status
 LCNM.       Baker Hughes                             : Logging Company Name
 LCC .       150                                      : Logging Company Code
 OPMD.       OH.WIRE                                  : Operation Mode
 PANA.       HEKEL/BUHNE/BUJOR                        : Processing Analyst
 PCON.       Baker Hughes                             : Processing Contractor
 APIN.                                                : API Serial Number
 LATI.DEG    0.0000                                   : Latitude
 LONG.DEG    0.0000                                   : Longitude
~Other information
GENERAL                                                                         
* LOG CORRELATED TO HDIL-XMAC RUN 1.1 FROM 09-SEP-2023.                         
* MAXIMUM DEVIATION OVER OPEN HOLE LOGGED INTERVAL IS 50.7 DEG AT 2700 M.       
* LAST CIRCULATION AT TD STOPPED AT  21 HRS ON 08-SEP-23 AFTER 3.25 HRS.        
* TOOLSTRING REACHED TD AT 14:30 HRS ON 10-SEP-2023.                            
TEMPERATURE:                                                                    
* MAXIMUM RECORDED TEMPERATURE FROM TTRM WAS 83.1 DEG C AT 2850 M.              
MUD DATA                                                                        
* MUD TYPE: OBM                                                                 
* MUD WEIGHT: 1.12 SG                                                           
* OIL WATER RATIO = 66.09 / 33.91                                               
* SOLIDS FRACTION = 10.9 %                                                      
* WATER % BY VOLUME = 29.5 %                                                    
* WATER PHASE CHLORIDES = 169491 MG/L                                           
* WHOLE MUD CHLORIDE CONTENT = 50000 MG/L                                       
* WHOLE MUD NACL EQUIVALENT = 79000 PPM                                         
GAMMA RAY / SPECTRALOG                                                          
* GAMMA RAY RUN DECENTRALISED.                                                  
* SPECTRALOG RECORDED BUT NOT PRESENTED FROM THIS RUN.                          
ZDL/CN                                                                          
* ZDL/CN DATA PRESENTED ON LIMESTONE SCALES.                                    
* CNC CURVE IS CALIPER AND SALINITY CORRECTED AND PRESENTED ON LIMESTONE MATRIX 
* NACL EQUIVALENT = 79000 PPM.                                                  
* ZDL/CN/GR RECORDED AT SAMPLE RATE OF 4 SPF.                                   
* DENSITY CURVE ZDNC IS BOREHOLE CORRECTED.                                     
* ZDL/CN LOGGED TOGETHER WITH MREX PASSES. PRESENTED LOG IS FROM                
  PP + LIGHT OIL PASS, RECORDED AT 1 M/MIN.                                     
#  Curve Data
~A    DEPT            BIT             CALX            CHT             CN              CNC             GR              PE              SPD             TEN             TTEN            WTBH            ZCOR            ZDEN            ZDNC        
# ...
       2625.2424          8.5000          8.6384       1377.6382         18.0972         17.7808         97.8560          1.9930          1.0003       -103.2901       5213.3008         79.5530          0.0167          2.6094          2.6056
       2625.3186          8.5000          8.6343       1381.4135         17.9619         17.6497         98.0632          1.9791          1.0006        -81.2626       5240.9316         79.5546          0.0183          2.6123          2.6084
       2625.3948          8.5000          8.6287       1395.0952         17.6990         17.3934         98.3016          1.9677          1.0008        -34.4721       5291.4004         79.5686          0.0207          2.6159          2.6121
       2625.4710          8.5000          8.6234       1419.9008         17.3064         17.0081         98.6805          1.9609          1.0008         32.0709       5358.2725         79.5677          0.0237          2.6199          2.6161
       2625.5472          8.5000          8.6202       1451.7770         16.8423         16.5505         99.0894          1.9601          1.0008        105.3531       5427.7041         79.5521          0.0269          2.6241          2.6203
       2625.6234          8.5000          8.6198       1482.1711         16.3965         16.1091         99.3050          1.9652          1.0008        169.3884       5483.8125         79.5359          0.0297          2.6279          2.6241
       2625.6996          8.5000          8.6220       1500.6411         16.0364         15.7509         99.1042          1.9731          1.0008        210.3040       5513.7852         79.5203          0.0315          2.6305          2.6268
       2625.7758          8.5000          8.6252       1501.1660         15.7804         15.4952         98.4323          1.9794          1.0008        220.9082       5512.1196         79.5326          0.0319          2.6314          2.6276
       2625.8520          8.5000          8.6278       1484.9750         15.6022         15.3171         97.4004          1.9801          1.0008        202.2694       5481.6865         79.5326          0.0307          2.6302          2.6265
       2625.9282          8.5000          8.6284       1458.8252         15.4475         15.1635         96.2219          1.9745          1.0006        162.4423       5431.9712         79.5596          0.0281          2.6273          2.6235
       2626.0044          8.5000          8.6263       1431.7822         15.2653         14.9846         95.0654          1.9645          1.0004        115.3637       5377.6475         79.5725          0.0247          2.6233          2.6195
       2626.0806          8.5000          8.6227       1411.7458         15.0426         14.7666         94.0414          1.9533          1.0003         75.2291       5332.8374         79.5702          0.0210          2.6192          2.6154
       2626.1568          8.5000          8.6205       1400.9130         14.8118         14.5397         93.1323          1.9432          1.0002         49.8952       5304.7695         79.5661          0.0177          2.6156          2.6117
       2626.2330          8.5000          8.6219       1396.9121         14.6095         14.3385         92.2432          1.9346          0.9999         39.9721       5293.2002         79.5605          0.0152          2.6128          2.6090
       2626.3092          8.5000          8.6268       1395.2627         14.4404         14.1681         91.2802          1.9261          0.9993         40.1387       5292.0386         79.5407          0.0135          2.6111          2.6072
       2626.3854          8.5000          8.6331       1392.2926         14.2781         14.0035         90.2007          1.9161          0.9988         42.3114       5292.7661         79.5342          0.0127          2.6102          2.6063
       2626.4616          8.5000          8.6380       1387.8833         14.0966         13.8209         88.9998          1.9035          0.9985         41.0397       5289.8589         79.5152          0.0124          2.6100          2.6061
       2626.5378          8.5000          8.6393       1384.4120         13.8994         13.6251         87.7374          1.8883          0.9986         35.4335       5282.5444         79.4850          0.0125          2.6102          2.6064
       2626.6140          8.5000          8.6370       1384.2540         13.7170         13.4463         86.5249          1.8718          0.9993         27.8677       5273.3184         79.4721          0.0128          2.6107          2.6069
       2626.6902          8.5000          8.6337       1388.0958         13.5913         13.3240         85.4765          1.8556          1.0001         20.8205       5264.6919         79.4771          0.0131          2.6112          2.6074
       2626.7664          8.5000          8.6325       1393.5443         13.5579         13.2919         84.7084          1.8413          1.0010         15.0058       5257.3770         79.4736          0.0133          2.6114          2.6076
       2626.8426          8.5000          8.6347       1395.9906         13.6156         13.3475         84.3044          1.8299          1.0015          8.2142       5249.2646         79.5144          0.0132          2.6110          2.6072
       2626.9188          8.5000          8.6398       1391.4957         13.7284         13.4558         84.2021          1.8208          1.0016         -2.1500       5238.0566         79.5440          0.0128          2.6098          2.6060
       2626.9950          8.5000          8.6452       1379.9896         13.8533         13.5759         84.2336          1.8125          1.0015        -15.5436       5224.6494         79.5605          0.0121          2.6079          2.6041
       2627.0712          8.5000          8.6485       1365.7568         13.9610         13.6803         84.2437          1.8037          1.0012        -28.2529       5212.9150         79.5626          0.0112          2.6057          2.6018
       2627.1474          8.5000          8.6494       1354.3552         14.0452         13.7629         84.1494          1.7941          1.0011        -37.0791       5205.9004         79.5504          0.0103          2.6036          2.5998
       2627.2236          8.5000          8.6496       1349.0776         14.1134         13.8302         84.0029          1.7853          1.0009        -39.9641       5205.2749         79.5245          0.0098          2.6023          2.5984
       2627.2998          8.5000          8.6509       1348.8793         14.1729         13.8883         83.9394          1.7809          1.0004        -37.1862       5210.3174         79.5000          0.0097          2.6020          2.5981
       2627.3760          8.5000          8.6543       1350.5646         14.2285         13.9410         84.0734          1.7841          0.9998        -31.6447       5217.8486         79.4652          0.0103          2.6027          2.5989
       2627.4522          8.5000          8.6601       1351.3839         14.2879         13.9960         84.3994          1.7963          0.9990        -27.8772       5223.3218         79.4227          0.0113          2.6042          2.6003
       2627.5284          8.5000          8.6667       1349.5859         14.3565         14.0596         84.8164          1.8155          0.9984        -30.2544       5222.6328         79.4017          0.0125          2.6057          2.6019
       2627.6046          8.5000          8.6714       1344.8406         14.4457         14.1447         85.2162          1.8362          0.9982        -41.8831       5213.1475         79.3771          0.0137          2.6069          2.6031
       2627.6808          8.5000          8.6722       1338.0193         14.5807         14.2775         85.5159          1.8518          0.9984        -62.6380       5195.5313         79.3639          0.0146          2.6073          2.6035
       2627.7570          8.5000          8.6689       1330.9509         14.7794         14.4761         85.6985          1.8565          0.9988        -88.4035       5174.2734         79.3762          0.0149          2.6070          2.6032
