~Version Information
 VERS.                2.00:   CWLS log ASCII Standard -VERSION 2.00
 WRAP.                  NO:   One line per frame      
~Well Information Block
#MNEM.UNIT                     Data                     Description
#----.----   ----------------------------------------   -------------------------------
 STRT.M                                     2542.3368 : Starting Depth
 STOP.M                                     2933.0142 : Ending Depth
 STEP.M                                        0.0762 : Level Spacing
 NULL.                                      -999.2500 : Absent Value
 COMP.       GEOTHERMIE DELFT                         : Company
 WELL.       GT-01                                    : Well
 FLD .       DELFT                                    : Field
 LOC .       LOC400#3                                 : Location
 PROV.                                                : Province
 CTRY.       NETHERLANDS                              : Country
 SRVC.       Baker Hughes                             : Service Company
 DATE.       10-SEP-2023                              : Log Date
 UWI .                                                : Unique Well ID
 LIC .                                                : License Number
~Curve Information Block
#MNEM    .UNIT        API Codes     Curve Description
#--------.--------   LG--CV-CL--M   ---------------------------------------------------
 DEPT    .M          99 995 99  1 : Depth
 BIT     .in         70 282  1  1 : Bit size
 CALX    .in         70 280 13  1 : Caliper from X-axis of XY caliper(s)
 CHT     .lbf        99 635 99  1 : Cable head tension
 CN      .pu         42 890  1  1 : Compensated neutron porosity
 CNC     .pu         42 995 99  1 : Borehole size corrected compensated neutron porosity
 GR      .gAPI       30 310  1  1 : Gamma ray
 PE      .b/e        45 358  1  1 : Photo electric cross-section
 SPD     .m/min      99 636 99  1 : Speed
 TEN     .lbf        99 635 99  1 : Differential tension
 TTEN    .lbf        99 635 99  1 : Total tension
 WTBH    .degC       99 995 99  1 : Temperature of borehole
 ZCOR    .g/cm3      45 356 99  1 : Density correction
 ZDEN    .g/cm3      45 350  1  1 : Formation bulk density
 ZDNC    .g/cm3      94 995 99  1 : Borehole size/mud weight corrected density
~Parameter Information Block
#MNEM.UNIT                     Value                    Description
#----.----   ----------------------------------------   -------------------------------
 HID1.       COMPENSATED Z-DENSILOG^S                 : Header Identifier
 HID2.       COMPENSATED NEUTRON LOG                  : Header Identifier
 HID3.       GAMMA RAY LOG                            : Header Identifier
 FILE.       207823                                   : File Number
 CMT1.       FIELD PRINT                              : Comment 1  
 CMT2.       1:1000 SCALE                             : Comment 2  
 CMT3.       1:200 SCALE                              : Comment 3  
 FL  .       LAT:    52 DEG 0 MIN 1.562 SEC N         : Field Location
 FL1 .       LONG: 4 DEG 22 MIN 10.9 SEC E            : Field Location 1
 OS1 .       DSL,BHP                                  : Other Services Line 1
 OS2 .       HDIL/XMAC                                : Other Services Line 2
 OS3 .       MREX                                     : Other Services Line 3
 OS4 .       GXPL/UXPL                                : Other Services Line 4
 PDAT.       MSL                                      : Permanent Datum
 EPD .M      7.46                                     : Elevation Of Perm. Datum
 LMF .       DF                                       : Log Measured From
 APD .M      7.46                                     : Above Permanent Datum
 DMF .       DF                                       : Drilling Measured From
 EKB .M      7.46                                     : Elevation Of Kelly Bushing
 EDF .M      7.46                                     : Elevation Of Derrick Floor
 EGL .M      -0.54                                    : Elevation Of Ground Level
 RUN .       3                                        : Run Number
 TRIP.       1                                        : Trip Number
 TDD .M      2931.0                                   : Total Depth - Driller
 TDL .M      2930.8                                   : Total Depth - Logger
 BLI .M      2920.5                                   : Bottom Log Interval
 TLI .M      2570.0                                   : Top Log Interval
 CSIZ.IN     9.625                                    : Casing Size
 CBDR.M      2572.0                                   : Casing Bottom - Driller
 CBLO.M      2570.0                                   : Casing Bottom - Logger
 BS  .IN     8.5                                      : Bit Size
 DFT .       OBM                                      : Drilling Fluid Type
 DFD .G/C3   1.12                                     : Drilling Fluid Density
 DFV .CP     21                                       : Drilling Fluid Viscosity
 DFL .ML     1.4                                      : Drilling Fluid Loss
 MSS .       ACTIVE PIT                               : Mud Sample Source
 MFSS.       N/A                                      : Mud Filtrate Sample Source
 MCSS.       N/A                                      : Mud Cake Sample Source
 TSC .       41 HRS 30 MINS                           : Time Since Circulation
 MRT .DEGC   83.1                                     : Maximum Recorded Temperature
 LUN .       Z006823                                  : Logging Unit Number
 LUL .       DEN HELDER                               : Logging Unit Location
 ENGI.       HEKEL/BUHNE/BUJOR                        : Engineer's Name
 WITN.       AUKE BARNHOORN                           : Witness' Name
 TSTR.       /ZDL/CN/GR/                              : Title Service Mnemonic
 TSTG.       NA                                       : Title Service Mnemonic
 STUS.       FINAL                                    : Status
 LCNM.       Baker Hughes                             : Logging Company Name
 LCC .       150                                      : Logging Company Code
 OPMD.       OH.WIRE                                  : Operation Mode
 PANA.       HEKEL/BUHNE/BUJOR                        : Processing Analyst
 PCON.       Baker Hughes                             : Processing Contractor
 APIN.                                                : API Serial Number
 LATI.DEG    0.0000                                   : Latitude
 LONG.DEG    0.0000                                   : Longitude
~Other information
GENERAL                                                                         
* LOG CORRELATED TO HDIL-XMAC RUN 1.1 FROM 09-SEP-2023.                         
* MAXIMUM DEVIATION OVER OPEN HOLE LOGGED INTERVAL IS 50.7 DEG AT 2700 M.       
* LAST CIRCULATION AT TD STOPPED AT  21 HRS ON 08-SEP-23 AFTER 3.25 HRS.        
* TOOLSTRING REACHED TD AT 14:30 HRS ON 10-SEP-2023.                            
TEMPERATURE:                                                                    
* MAXIMUM RECORDED TEMPERATURE FROM TTRM WAS 83.1 DEG C AT 2850 M.              
MUD DATA                                                                        
* MUD TYPE: OBM                                                                 
* MUD WEIGHT: 1.12 SG                                                           
* OIL WATER RATIO = 66.09 / 33.91                                               
* SOLIDS FRACTION = 10.9 %                                                      
* WATER % BY VOLUME = 29.5 %                                                    
* WATER PHASE CHLORIDES = 169491 MG/L                                           
* WHOLE MUD CHLORIDE CONTENT = 50000 MG/L                                       
* WHOLE MUD NACL EQUIVALENT = 79000 PPM                                         
GAMMA RAY / SPECTRALOG                                                          
* GAMMA RAY RUN DECENTRALISED.                                                  
* SPECTRALOG RECORDED BUT NOT PRESENTED FROM THIS RUN.                          
ZDL/CN                                                                          
* ZDL/CN DATA PRESENTED ON LIMESTONE SCALES.                                    
* CNC CURVE IS CALIPER AND SALINITY CORRECTED AND PRESENTED ON LIMESTONE MATRIX 
* NACL EQUIVALENT = 79000 PPM.                                                  
* ZDL/CN/GR RECORDED AT SAMPLE RATE OF 4 SPF.                                   
* DENSITY CURVE ZDNC IS BOREHOLE CORRECTED.                                     
* ZDL/CN LOGGED TOGETHER WITH MREX PASSES. PRESENTED LOG IS FROM                
  PP + LIGHT OIL PASS, RECORDED AT 1 M/MIN.                                     
#  Curve Data
~A    DEPT            BIT             CALX            CHT             CN              CNC             GR              PE              SPD             TEN             TTEN            WTBH            ZCOR            ZDEN            ZDNC        
# ...
       2576.0172          8.5000          9.0341       1122.0465         15.6721         15.1194         79.5170          1.6663          1.0001        -48.1739       4700.8999         78.2048          0.0498          2.5495          2.5457
       2576.0934          8.5000          8.9830       1114.7739         15.6434         15.1238         78.2689          1.6533          0.9999        -69.4777       4682.7471         78.2282          0.0492          2.5515          2.5476
       2576.1696          8.5000          8.9506       1107.2842         15.6476         15.1487         76.8422          1.6400          0.9996        -86.1945       4670.2402         78.2358          0.0480          2.5529          2.5491
       2576.2458          8.5000          8.9389       1101.6444         15.7002         15.2077         75.4586          1.6280          0.9997        -95.9124       4665.5488         78.2404          0.0462          2.5532          2.5493
       2576.3220          8.5000          8.9448       1098.6125         15.8215         15.3230         74.3018          1.6182          0.9999        -99.4885       4667.5244         78.2417          0.0438          2.5517          2.5478
       2576.3982          8.5000          8.9646       1097.4417         16.0227         15.5073         73.4575          1.6111          1.0003        -99.2690       4673.5752         78.2659          0.0411          2.5484          2.5445
       2576.4744          8.5000          8.9946       1096.9001         16.2903         15.7499         72.8596          1.6063          1.0002        -97.5207       4681.2598         78.2586          0.0383          2.5438          2.5400
       2576.5506          8.5000          9.0266       1096.4204         16.5411         15.9745         72.3002          1.6041          0.9999        -96.4421       4688.2876         78.2205          0.0360          2.5392          2.5353
       2576.6268          8.5000          9.0499       1095.4561         16.5916         16.0086         71.5420          1.6054          0.9995        -98.0110       4692.6851         78.1671          0.0344          2.5355          2.5317
       2576.7030          8.5000          9.0549       1093.1261         16.2693         15.6901         70.4118          1.6115          0.9992       -103.0220       4693.7417         78.1154          0.0336          2.5335          2.5296
       2576.7792          8.5000          9.0363       1089.3450         15.5663         15.0146         68.8283          1.6227          0.9992       -110.2134       4692.8257         78.0953          0.0337          2.5330          2.5291
       2576.8554          8.5000          8.9954       1084.6672         14.6754         14.1684         66.8095          1.6377          0.9995       -116.8642       4692.7300         78.1080          0.0342          2.5333          2.5293
       2576.9316          8.5000          8.9397       1080.0049         13.8340         13.3782         64.4550          1.6532          0.9999       -119.9601       4696.4541         78.1132          0.0349          2.5334          2.5294
       2577.0078          8.5000          8.8793       1077.3792         13.1793         12.7716         61.9208          1.6649          1.0002       -118.0489       4705.3325         78.1501          0.0359          2.5326          2.5286
       2577.0840          8.5000          8.8233       1078.9004         12.6857         12.3192         59.4594          1.6701          1.0004       -111.5510       4718.7490         78.1897          0.0370          2.5309          2.5268
       2577.1602          8.5000          8.7766       1085.4130         12.2110         11.8789         57.3057          1.6694          1.0004       -102.6294       4734.3037         78.2295          0.0385          2.5289          2.5248
       2577.2364          8.5000          8.7377       1096.2494         11.6384         11.3370         55.5560          1.6670          1.0007        -93.7117       4749.3604         78.2931          0.0405          2.5276          2.5235
       2577.3126          8.5000          8.7033       1109.1484         10.9727         10.6999         54.1254          1.6682          1.0010        -86.2318       4762.3496         78.3497          0.0428          2.5279          2.5238
       2577.3888          8.5000          8.6730       1121.3755         10.3293         10.0816         52.7704          1.6770          1.0013        -80.4293       4772.9868         78.3823          0.0450          2.5300          2.5259
       2577.4650          8.5000          8.6479       1130.7690          9.8438          9.6155         51.2400          1.6948          1.0011        -76.1206       4781.5044         78.3756          0.0466          2.5335          2.5294
       2577.5412          8.5000          8.6282       1136.0359          9.5774          9.3624         49.4700          1.7202          1.0004        -73.6639       4787.7119         78.3299          0.0472          2.5379          2.5338
       2577.6174          8.5000          8.6138       1137.0798          9.4987          9.2918         47.7398          1.7497          0.9995        -73.6173       4791.3179         78.2880          0.0471          2.5427          2.5386
       2577.6936          8.5000          8.6036       1135.6262          9.5356          9.3333         46.5662          1.7787          0.9988        -75.3152       4793.2456         78.2659          0.0468          2.5480          2.5439
       2577.7698          8.5000          8.5959       1133.6608          9.6387          9.4390         46.3992          1.8020          0.9987        -77.3296       4795.0547         78.2518          0.0473          2.5539          2.5499
       2577.8460          8.5000          8.5914       1132.8402          9.8105          9.6111         47.4592          1.8160          0.9991        -77.5509       4798.8335         78.2205          0.0499          2.5611          2.5570
       2577.9222          8.5000          8.5928       1134.2296         10.0879          9.8845         49.7149          1.8212          0.9998        -74.9083       4805.5098         78.1871          0.0553          2.5694          2.5654
       2577.9984          8.5000          8.6028       1137.0643         10.5357         10.3219         52.9621          1.8232          1.0005        -71.5613       4812.8086         78.1541          0.0637          2.5785          2.5745
       2578.0746          8.5000          8.6230       1139.1248         11.2357         11.0025         56.9414          1.8299          1.0008        -71.5348       4816.7339         78.1499          0.0746          2.5873          2.5833
       2578.1508          8.5000          8.6529       1138.9407         12.2479         11.9854         61.3783          1.8467          1.0007        -77.3803       4814.8926         78.1748          0.0870          2.5947          2.5908
       2578.2270          8.5000          8.6882       1135.9254         13.5941         13.2933         65.9841          1.8730          1.0004        -88.1483       4808.4238         78.1614          0.0994          2.5998          2.5960
       2578.3032          8.5000          8.7233       1130.4663         15.2289         14.8843         70.4478          1.9017          1.0002       -100.0573       4801.2080         78.1632          0.1103          2.6023          2.5984
       2578.3794          8.5000          8.7533       1123.9835         17.0101         16.6217         74.4915          1.9230          1.0003       -109.2298       4797.0781         78.1538          0.1185          2.6020          2.5982
       2578.4556          8.5000          8.7753       1118.1573         18.6662         18.2409         77.9867          1.9293          1.0004       -114.7850       4796.8135         78.1337          0.1234          2.5997          2.5959
       2578.5318          8.5000          8.7882       1113.8049         19.8626         19.4130         80.9742          1.9201          1.0003       -119.6193       4797.5186         78.1307          0.1248          2.5970          2.5932
