~Version Information
 VERS.                2.00:   CWLS log ASCII Standard -VERSION 2.00
 WRAP.                  NO:   One line per frame      
~Well Information Block
#MNEM.UNIT                     Data                     Description
#----.----   ----------------------------------------   -------------------------------
 STRT.M                                     2542.3368 : Starting Depth
 STOP.M                                     2933.0142 : Ending Depth
 STEP.M                                        0.0762 : Level Spacing
 NULL.                                      -999.2500 : Absent Value
 COMP.       GEOTHERMIE DELFT                         : Company
 WELL.       GT-01                                    : Well
 FLD .       DELFT                                    : Field
 LOC .       LOC400#3                                 : Location
 PROV.                                                : Province
 CTRY.       NETHERLANDS                              : Country
 SRVC.       Baker Hughes                             : Service Company
 DATE.       10-SEP-2023                              : Log Date
 UWI .                                                : Unique Well ID
 LIC .                                                : License Number
~Curve Information Block
#MNEM    .UNIT        API Codes     Curve Description
#--------.--------   LG--CV-CL--M   ---------------------------------------------------
 DEPT    .M          99 995 99  1 : Depth
 BIT     .in         70 282  1  1 : Bit size
 CALX    .in         70 280 13  1 : Caliper from X-axis of XY caliper(s)
 CHT     .lbf        99 635 99  1 : Cable head tension
 CN      .pu         42 890  1  1 : Compensated neutron porosity
 CNC     .pu         42 995 99  1 : Borehole size corrected compensated neutron porosity
 GR      .gAPI       30 310  1  1 : Gamma ray
 PE      .b/e        45 358  1  1 : Photo electric cross-section
 SPD     .m/min      99 636 99  1 : Speed
 TEN     .lbf        99 635 99  1 : Differential tension
 TTEN    .lbf        99 635 99  1 : Total tension
 WTBH    .degC       99 995 99  1 : Temperature of borehole
 ZCOR    .g/cm3      45 356 99  1 : Density correction
 ZDEN    .g/cm3      45 350  1  1 : Formation bulk density
 ZDNC    .g/cm3      94 995 99  1 : Borehole size/mud weight corrected density
~Parameter Information Block
#MNEM.UNIT                     Value                    Description
#----.----   ----------------------------------------   -------------------------------
 HID1.       COMPENSATED Z-DENSILOG^S                 : Header Identifier
 HID2.       COMPENSATED NEUTRON LOG                  : Header Identifier
 HID3.       GAMMA RAY LOG                            : Header Identifier
 FILE.       207823                                   : File Number
 CMT1.       FIELD PRINT                              : Comment 1  
 CMT2.       1:1000 SCALE                             : Comment 2  
 CMT3.       1:200 SCALE                              : Comment 3  
 FL  .       LAT:    52 DEG 0 MIN 1.562 SEC N         : Field Location
 FL1 .       LONG: 4 DEG 22 MIN 10.9 SEC E            : Field Location 1
 OS1 .       DSL,BHP                                  : Other Services Line 1
 OS2 .       HDIL/XMAC                                : Other Services Line 2
 OS3 .       MREX                                     : Other Services Line 3
 OS4 .       GXPL/UXPL                                : Other Services Line 4
 PDAT.       MSL                                      : Permanent Datum
 EPD .M      7.46                                     : Elevation Of Perm. Datum
 LMF .       DF                                       : Log Measured From
 APD .M      7.46                                     : Above Permanent Datum
 DMF .       DF                                       : Drilling Measured From
 EKB .M      7.46                                     : Elevation Of Kelly Bushing
 EDF .M      7.46                                     : Elevation Of Derrick Floor
 EGL .M      -0.54                                    : Elevation Of Ground Level
 RUN .       3                                        : Run Number
 TRIP.       1                                        : Trip Number
 TDD .M      2931.0                                   : Total Depth - Driller
 TDL .M      2930.8                                   : Total Depth - Logger
 BLI .M      2920.5                                   : Bottom Log Interval
 TLI .M      2570.0                                   : Top Log Interval
 CSIZ.IN     9.625                                    : Casing Size
 CBDR.M      2572.0                                   : Casing Bottom - Driller
 CBLO.M      2570.0                                   : Casing Bottom - Logger
 BS  .IN     8.5                                      : Bit Size
 DFT .       OBM                                      : Drilling Fluid Type
 DFD .G/C3   1.12                                     : Drilling Fluid Density
 DFV .CP     21                                       : Drilling Fluid Viscosity
 DFL .ML     1.4                                      : Drilling Fluid Loss
 MSS .       ACTIVE PIT                               : Mud Sample Source
 MFSS.       N/A                                      : Mud Filtrate Sample Source
 MCSS.       N/A                                      : Mud Cake Sample Source
 TSC .       41 HRS 30 MINS                           : Time Since Circulation
 MRT .DEGC   83.1                                     : Maximum Recorded Temperature
 LUN .       Z006823                                  : Logging Unit Number
 LUL .       DEN HELDER                               : Logging Unit Location
 ENGI.       HEKEL/BUHNE/BUJOR                        : Engineer's Name
 WITN.       AUKE BARNHOORN                           : Witness' Name
 TSTR.       /ZDL/CN/GR/                              : Title Service Mnemonic
 TSTG.       NA                                       : Title Service Mnemonic
 STUS.       FINAL                                    : Status
 LCNM.       Baker Hughes                             : Logging Company Name
 LCC .       150                                      : Logging Company Code
 OPMD.       OH.WIRE                                  : Operation Mode
 PANA.       HEKEL/BUHNE/BUJOR                        : Processing Analyst
 PCON.       Baker Hughes                             : Processing Contractor
 APIN.                                                : API Serial Number
 LATI.DEG    0.0000                                   : Latitude
 LONG.DEG    0.0000                                   : Longitude
~Other information
GENERAL                                                                         
* LOG CORRELATED TO HDIL-XMAC RUN 1.1 FROM 09-SEP-2023.                         
* MAXIMUM DEVIATION OVER OPEN HOLE LOGGED INTERVAL IS 50.7 DEG AT 2700 M.       
* LAST CIRCULATION AT TD STOPPED AT  21 HRS ON 08-SEP-23 AFTER 3.25 HRS.        
* TOOLSTRING REACHED TD AT 14:30 HRS ON 10-SEP-2023.                            
TEMPERATURE:                                                                    
* MAXIMUM RECORDED TEMPERATURE FROM TTRM WAS 83.1 DEG C AT 2850 M.              
MUD DATA                                                                        
* MUD TYPE: OBM                                                                 
* MUD WEIGHT: 1.12 SG                                                           
* OIL WATER RATIO = 66.09 / 33.91                                               
* SOLIDS FRACTION = 10.9 %                                                      
* WATER % BY VOLUME = 29.5 %                                                    
* WATER PHASE CHLORIDES = 169491 MG/L                                           
* WHOLE MUD CHLORIDE CONTENT = 50000 MG/L                                       
* WHOLE MUD NACL EQUIVALENT = 79000 PPM                                         
GAMMA RAY / SPECTRALOG                                                          
* GAMMA RAY RUN DECENTRALISED.                                                  
* SPECTRALOG RECORDED BUT NOT PRESENTED FROM THIS RUN.                          
ZDL/CN                                                                          
* ZDL/CN DATA PRESENTED ON LIMESTONE SCALES.                                    
* CNC CURVE IS CALIPER AND SALINITY CORRECTED AND PRESENTED ON LIMESTONE MATRIX 
* NACL EQUIVALENT = 79000 PPM.                                                  
* ZDL/CN/GR RECORDED AT SAMPLE RATE OF 4 SPF.                                   
* DENSITY CURVE ZDNC IS BOREHOLE CORRECTED.                                     
* ZDL/CN LOGGED TOGETHER WITH MREX PASSES. PRESENTED LOG IS FROM                
  PP + LIGHT OIL PASS, RECORDED AT 1 M/MIN.                                     
#  Curve Data
~A    DEPT            BIT             CALX            CHT             CN              CNC             GR              PE              SPD             TEN             TTEN            WTBH            ZCOR            ZDEN            ZDNC        
# ...
       2651.1504          8.5000          8.6269       1223.9812         17.0690         16.7703         19.0940          1.4366          1.0012         22.4230       4912.4526         80.1632          0.0151          2.3360          2.3317
       2651.2266          8.5000          8.6315       1216.5579         17.1297         16.8271         18.8373          1.4442          1.0010          9.8359       4898.6758         80.1415          0.0157          2.3429          2.3386
       2651.3028          8.5000          8.6349       1208.1938         17.1687         16.8633         18.5153          1.4460          1.0007         -4.7063       4883.7847         80.1185          0.0164          2.3479          2.3436
       2651.3790          8.5000          8.6397       1200.7836         17.1164         16.8080         18.1314          1.4409          1.0004        -15.0088       4873.8818         80.0958          0.0168          2.3500          2.3457
       2651.4552          8.5000          8.6468       1196.6069         16.9563         16.6443         17.7279          1.4300          1.0003        -17.4740       4872.1743         80.0620          0.0169          2.3490          2.3447
       2651.5314          8.5000          8.6555       1196.6901         16.7400         16.4240         17.3747          1.4154          1.0002        -12.5778       4877.7212         80.0454          0.0166          2.3452          2.3408
       2651.6076          8.5000          8.6644       1201.0081         16.5507         16.2303         17.0993          1.3997          1.0000         -3.9979       4886.5356         80.0474          0.0164          2.3395          2.3352
       2651.6838          8.5000          8.6729       1208.2782         16.4627         16.1374         16.8761          1.3847          0.9998          4.0854       4894.4058         80.0678          0.0163          2.3333          2.3290
       2651.7600          8.5000          8.6806       1216.0637         16.5102         16.1789         16.6647          1.3723          0.9996          9.3263       4899.1802         80.0919          0.0166          2.3274          2.3231
       2651.8362          8.5000          8.6879       1222.1333         16.6775         16.3393         16.4543          1.3646          0.9996         11.5355       4900.9414         80.1183          0.0172          2.3225          2.3182
       2651.9124          8.5000          8.6957       1225.0369         16.9036         16.5573         16.3218          1.3628          0.9997         12.0855       4901.2607         80.1450          0.0179          2.3190          2.3147
       2651.9886          8.5000          8.7046       1225.6698         17.1144         16.7593         16.4181          1.3673          0.9999         13.6645       4902.8340         80.1703          0.0186          2.3171          2.3128
       2652.0648          8.5000          8.7145       1226.9001         17.2787         16.9147         16.8611          1.3771          1.0002         17.1390       4906.3638         80.2055          0.0192          2.3170          2.3127
       2652.1410          8.5000          8.7253       1230.8250         17.4274         17.0538         17.6425          1.3902          1.0004         21.0678       4910.1997         80.2089          0.0197          2.3185          2.3142
       2652.2172          8.5000          8.7363       1237.1499         17.6086         17.2249         18.6235          1.4033          1.0005         22.4106       4911.2051         80.2064          0.0199          2.3212          2.3169
       2652.2934          8.5000          8.7470       1244.2183         17.8355         17.4414         19.6229          1.4134          1.0004         18.8289       4907.1201         80.2247          0.0200          2.3244          2.3201
       2652.3696          8.5000          8.7570       1249.6975         18.0911         17.6865         20.4679          1.4181          1.0002          9.8324       4897.6606         80.2229          0.0198          2.3269          2.3226
       2652.4458          8.5000          8.7660       1251.2972         18.3428         17.9284         21.0545          1.4168          0.9999         -2.6390       4885.0098         80.2407          0.0193          2.3275          2.3232
       2652.5220          8.5000          8.7736       1248.7380         18.5500         18.1274         21.3624          1.4106          0.9997        -14.6658       4873.2466         80.2505          0.0185          2.3257          2.3214
       2652.5982          8.5000          8.7795       1244.2039         18.6941         18.2653         21.4234          1.4017          0.9998        -20.9502       4867.6045         80.2648          0.0175          2.3215          2.3172
       2652.6744          8.5000          8.7843       1240.8373         18.8072         18.3734         21.3015          1.3931          1.0003        -18.6233       4870.6489         80.2564          0.0167          2.3154          2.3111
       2652.7506          8.5000          8.7894       1240.0320         18.9668         18.5271         21.0577          1.3871          1.0007         -9.6233       4880.0796         80.2521          0.0161          2.3077          2.3034
       2652.8268          8.5000          8.7954       1239.8801         19.2405         18.7929         20.7549          1.3842          1.0010         -0.1652       4889.5034         80.2259          0.0156          2.2983          2.2940
       2652.9030          8.5000          8.8026       1236.9374         19.6476         19.1894         20.4590          1.3830          1.0009          4.7141       4893.9907         80.2059          0.0149          2.2869          2.2827
       2652.9792          8.5000          8.8101       1230.0686         20.1526         19.6824         20.2061          1.3801          1.0004          3.5879       4892.3979         80.1934          0.0141          2.2738          2.2695
       2653.0554          8.5000          8.8182       1221.1583         20.6606         20.1779         19.9491          1.3725          0.9999         -2.0920       4886.4683         80.1499          0.0131          2.2598          2.2556
       2653.1316          8.5000          8.8275       1212.9844         21.0181         20.5236         19.5670          1.3593          0.9995         -9.3191       4879.3740         80.1309          0.0125          2.2468          2.2426
       2653.2078          8.5000          8.8394       1208.0917         21.0702         20.5655         18.9360          1.3418          0.9995        -14.7033       4874.4849         80.1378          0.0125          2.2370          2.2328
       2653.2840          8.5000          8.8552       1208.0562         20.7724         20.2586         18.0197          1.3233          0.9997        -16.5400       4873.3262         80.1306          0.0137          2.2320          2.2278
       2653.3602          8.5000          8.8756       1212.1091         20.2620         19.7389         16.8842          1.3072          0.9999        -16.0127       4874.5205         80.1492          0.0159          2.2325          2.2284
       2653.4364          8.5000          8.8988       1217.5447         19.7447         19.2111         15.6679          1.2959          1.0000        -16.2554       4874.8838         80.1792          0.0189          2.2382          2.2340
       2653.5126          8.5000          8.9222       1221.7177         19.3645         18.8191         14.5204          1.2901          1.0000        -19.7473       4872.0723         80.2187          0.0224          2.2476          2.2434
       2653.5888          8.5000          8.9440       1223.9563         19.1631         18.6047         13.5610          1.2895          1.0000        -26.6276       4866.1650         80.2385          0.0258          2.2592          2.2550
       2653.6650          8.5000          8.9641       1225.3563         19.1140         18.5415         12.8375          1.2935          1.0000        -35.3841       4858.8662         80.2373          0.0288          2.2714          2.2672
