~Version Information
 VERS.                2.00:   CWLS log ASCII Standard -VERSION 2.00
 WRAP.                  NO:   One line per frame      
~Well Information Block
#MNEM.UNIT                     Data                     Description
#----.----   ----------------------------------------   -------------------------------
 STRT.M                                     2542.3368 : Starting Depth
 STOP.M                                     2933.0142 : Ending Depth
 STEP.M                                        0.0762 : Level Spacing
 NULL.                                      -999.2500 : Absent Value
 COMP.       GEOTHERMIE DELFT                         : Company
 WELL.       GT-01                                    : Well
 FLD .       DELFT                                    : Field
 LOC .       LOC400#3                                 : Location
 PROV.                                                : Province
 CTRY.       NETHERLANDS                              : Country
 SRVC.       Baker Hughes                             : Service Company
 DATE.       10-SEP-2023                              : Log Date
 UWI .                                                : Unique Well ID
 LIC .                                                : License Number
~Curve Information Block
#MNEM    .UNIT        API Codes     Curve Description
#--------.--------   LG--CV-CL--M   ---------------------------------------------------
 DEPT    .M          99 995 99  1 : Depth
 BIT     .in         70 282  1  1 : Bit size
 CALX    .in         70 280 13  1 : Caliper from X-axis of XY caliper(s)
 CHT     .lbf        99 635 99  1 : Cable head tension
 CN      .pu         42 890  1  1 : Compensated neutron porosity
 CNC     .pu         42 995 99  1 : Borehole size corrected compensated neutron porosity
 GR      .gAPI       30 310  1  1 : Gamma ray
 PE      .b/e        45 358  1  1 : Photo electric cross-section
 SPD     .m/min      99 636 99  1 : Speed
 TEN     .lbf        99 635 99  1 : Differential tension
 TTEN    .lbf        99 635 99  1 : Total tension
 WTBH    .degC       99 995 99  1 : Temperature of borehole
 ZCOR    .g/cm3      45 356 99  1 : Density correction
 ZDEN    .g/cm3      45 350  1  1 : Formation bulk density
 ZDNC    .g/cm3      94 995 99  1 : Borehole size/mud weight corrected density
~Parameter Information Block
#MNEM.UNIT                     Value                    Description
#----.----   ----------------------------------------   -------------------------------
 HID1.       COMPENSATED Z-DENSILOG^S                 : Header Identifier
 HID2.       COMPENSATED NEUTRON LOG                  : Header Identifier
 HID3.       GAMMA RAY LOG                            : Header Identifier
 FILE.       207823                                   : File Number
 CMT1.       FIELD PRINT                              : Comment 1  
 CMT2.       1:1000 SCALE                             : Comment 2  
 CMT3.       1:200 SCALE                              : Comment 3  
 FL  .       LAT:    52 DEG 0 MIN 1.562 SEC N         : Field Location
 FL1 .       LONG: 4 DEG 22 MIN 10.9 SEC E            : Field Location 1
 OS1 .       DSL,BHP                                  : Other Services Line 1
 OS2 .       HDIL/XMAC                                : Other Services Line 2
 OS3 .       MREX                                     : Other Services Line 3
 OS4 .       GXPL/UXPL                                : Other Services Line 4
 PDAT.       MSL                                      : Permanent Datum
 EPD .M      7.46                                     : Elevation Of Perm. Datum
 LMF .       DF                                       : Log Measured From
 APD .M      7.46                                     : Above Permanent Datum
 DMF .       DF                                       : Drilling Measured From
 EKB .M      7.46                                     : Elevation Of Kelly Bushing
 EDF .M      7.46                                     : Elevation Of Derrick Floor
 EGL .M      -0.54                                    : Elevation Of Ground Level
 RUN .       3                                        : Run Number
 TRIP.       1                                        : Trip Number
 TDD .M      2931.0                                   : Total Depth - Driller
 TDL .M      2930.8                                   : Total Depth - Logger
 BLI .M      2920.5                                   : Bottom Log Interval
 TLI .M      2570.0                                   : Top Log Interval
 CSIZ.IN     9.625                                    : Casing Size
 CBDR.M      2572.0                                   : Casing Bottom - Driller
 CBLO.M      2570.0                                   : Casing Bottom - Logger
 BS  .IN     8.5                                      : Bit Size
 DFT .       OBM                                      : Drilling Fluid Type
 DFD .G/C3   1.12                                     : Drilling Fluid Density
 DFV .CP     21                                       : Drilling Fluid Viscosity
 DFL .ML     1.4                                      : Drilling Fluid Loss
 MSS .       ACTIVE PIT                               : Mud Sample Source
 MFSS.       N/A                                      : Mud Filtrate Sample Source
 MCSS.       N/A                                      : Mud Cake Sample Source
 TSC .       41 HRS 30 MINS                           : Time Since Circulation
 MRT .DEGC   83.1                                     : Maximum Recorded Temperature
 LUN .       Z006823                                  : Logging Unit Number
 LUL .       DEN HELDER                               : Logging Unit Location
 ENGI.       HEKEL/BUHNE/BUJOR                        : Engineer's Name
 WITN.       AUKE BARNHOORN                           : Witness' Name
 TSTR.       /ZDL/CN/GR/                              : Title Service Mnemonic
 TSTG.       NA                                       : Title Service Mnemonic
 STUS.       FINAL                                    : Status
 LCNM.       Baker Hughes                             : Logging Company Name
 LCC .       150                                      : Logging Company Code
 OPMD.       OH.WIRE                                  : Operation Mode
 PANA.       HEKEL/BUHNE/BUJOR                        : Processing Analyst
 PCON.       Baker Hughes                             : Processing Contractor
 APIN.                                                : API Serial Number
 LATI.DEG    0.0000                                   : Latitude
 LONG.DEG    0.0000                                   : Longitude
~Other information
GENERAL                                                                         
* LOG CORRELATED TO HDIL-XMAC RUN 1.1 FROM 09-SEP-2023.                         
* MAXIMUM DEVIATION OVER OPEN HOLE LOGGED INTERVAL IS 50.7 DEG AT 2700 M.       
* LAST CIRCULATION AT TD STOPPED AT  21 HRS ON 08-SEP-23 AFTER 3.25 HRS.        
* TOOLSTRING REACHED TD AT 14:30 HRS ON 10-SEP-2023.                            
TEMPERATURE:                                                                    
* MAXIMUM RECORDED TEMPERATURE FROM TTRM WAS 83.1 DEG C AT 2850 M.              
MUD DATA                                                                        
* MUD TYPE: OBM                                                                 
* MUD WEIGHT: 1.12 SG                                                           
* OIL WATER RATIO = 66.09 / 33.91                                               
* SOLIDS FRACTION = 10.9 %                                                      
* WATER % BY VOLUME = 29.5 %                                                    
* WATER PHASE CHLORIDES = 169491 MG/L                                           
* WHOLE MUD CHLORIDE CONTENT = 50000 MG/L                                       
* WHOLE MUD NACL EQUIVALENT = 79000 PPM                                         
GAMMA RAY / SPECTRALOG                                                          
* GAMMA RAY RUN DECENTRALISED.                                                  
* SPECTRALOG RECORDED BUT NOT PRESENTED FROM THIS RUN.                          
ZDL/CN                                                                          
* ZDL/CN DATA PRESENTED ON LIMESTONE SCALES.                                    
* CNC CURVE IS CALIPER AND SALINITY CORRECTED AND PRESENTED ON LIMESTONE MATRIX 
* NACL EQUIVALENT = 79000 PPM.                                                  
* ZDL/CN/GR RECORDED AT SAMPLE RATE OF 4 SPF.                                   
* DENSITY CURVE ZDNC IS BOREHOLE CORRECTED.                                     
* ZDL/CN LOGGED TOGETHER WITH MREX PASSES. PRESENTED LOG IS FROM                
  PP + LIGHT OIL PASS, RECORDED AT 1 M/MIN.                                     
#  Curve Data
~A    DEPT            BIT             CALX            CHT             CN              CNC             GR              PE              SPD             TEN             TTEN            WTBH            ZCOR            ZDEN            ZDNC        
# ...
       2798.8260          8.5000          8.5414       1455.3171         28.4425         28.1837        115.5532          1.8928          0.9971         68.0249       5403.3672         82.5936          0.1421          2.5680          2.5639
       2798.9022          8.5000          8.5798       1463.2927         28.0091         27.7088        115.4285          1.8901          0.9977         72.3793       5404.9468         82.5918          0.1400          2.5738          2.5698
       2798.9784          8.5000          8.6183       1464.3734         27.4227         27.0822        115.1344          1.8942          0.9988         69.0891       5398.8833         82.5668          0.1360          2.5810          2.5770
       2799.0546          8.5000          8.6513       1456.8680         26.7603         26.3869        114.5139          1.8999          1.0003         58.6131       5385.8911         82.5596          0.1301          2.5889          2.5850
       2799.1308          8.5000          8.6758       1441.4845         26.0270         25.6310        113.5034          1.9032          1.0018         43.4726       5368.7212         82.5181          0.1226          2.5967          2.5928
       2799.2070          8.5000          8.6907       1421.5325         25.2200         24.8124        112.2267          1.9038          1.0029         28.2978       5352.0879         82.4715          0.1138          2.6030          2.5992
       2799.2832          8.5000          8.6957       1402.0757         24.4020         23.9933        110.8975          1.9051          1.0032         18.8721       5341.6138         82.4492          0.1040          2.6065          2.6027
       2799.3594          8.5000          8.6925       1387.4961         23.6813         23.2793        109.6798          1.9117          1.0026         17.8077       5339.5679         82.4660          0.0939          2.6066          2.6028
       2799.4356          8.5000          8.6839       1379.0122         23.1610         22.7696        108.6976          1.9257          1.0014         22.0056       5342.5454         82.4944          0.0839          2.6036          2.5998
       2799.5118          8.5000          8.6732       1374.6504         22.8732         22.4929        107.9672          1.9451          0.9999         25.5424       5344.5693         82.5061          0.0746          2.5984          2.5945
       2799.5880          8.5000          8.6629       1371.8275         22.7586         22.3880        107.3838          1.9645          0.9988         23.7849       5341.2275         82.5134          0.0664          2.5922          2.5883
       2799.6642          8.5000          8.6541       1369.1484         22.6986         22.3361        106.8031          1.9780          0.9980         15.0562       5331.2192         82.5292          0.0594          2.5861          2.5822
       2799.7404          8.5000          8.6463       1366.1296         22.5805         22.2256        106.1071          1.9832          0.9977          2.0724       5317.6016         82.5390          0.0535          2.5806          2.5767
       2799.8166          8.5000          8.6385       1363.5171         22.3295         21.9828        105.2377          1.9827          0.9977         -8.1746       5307.4497         82.5686          0.0487          2.5764          2.5724
       2799.8928          8.5000          8.6295       1363.3639         21.9593         21.6224        104.2413          1.9820          0.9978         -7.9907       5308.1426         82.5764          0.0453          2.5739          2.5699
       2799.9690          8.5000          8.6183       1366.6628         21.5526         21.2275        103.2396          1.9862          0.9980          6.1286       5322.5518         82.5751          0.0432          2.5734          2.5694
       2800.0452          8.5000          8.6053       1372.3002         21.2015         20.8893        102.3417          1.9965          0.9983         30.8670       5346.6880         82.5517          0.0426          2.5751          2.5711
       2800.1214          8.5000          8.5916       1377.8616         20.9444         20.6452        101.5788          2.0099          0.9988         57.4235       5371.3730         82.4944          0.0434          2.5784          2.5744
       2800.1976          8.5000          8.5793       1380.7639         20.7758         20.4878        100.8592          2.0206          0.9997         76.1475       5387.0527         82.4732          0.0452          2.5828          2.5788
       2800.2738          8.5000          8.5711       1379.6548         20.6653         20.3847         99.9877          2.0240          1.0007         81.8116       5388.9995         82.4894          0.0475          2.5874          2.5834
       2800.3500          8.5000          8.5684       1374.9674         20.6016         20.3236         98.8101          2.0189          1.0015         74.9853       5378.4492         82.5155          0.0499          2.5915          2.5875
       2800.4262          8.5000          8.5700       1367.7211         20.5950         20.3157         97.3972          2.0074          1.0020         60.2832       5360.5864         82.5499          0.0521          2.5945          2.5906
       2800.5024          8.5000          8.5740       1358.6410         20.6660         20.3830         95.9861          1.9934          1.0021         43.0454       5341.0742         82.5770          0.0539          2.5960          2.5921
       2800.5786          8.5000          8.5788       1349.6145         20.8409         20.5530         94.9209          1.9795          1.0017         27.5960       5324.2842         82.5817          0.0553          2.5953          2.5914
       2800.6548          8.5000          8.5834       1343.2491         21.1404         20.8472         94.5220          1.9662          1.0009         15.7068       5311.8447         82.5769          0.0565          2.5917          2.5878
       2800.7310          8.5000          8.5872       1341.3823         21.5534         21.2550         94.9411          1.9524          1.0001          7.6624       5303.8115         82.5894          0.0577          2.5848          2.5809
       2800.8072          8.5000          8.5896       1345.0815         22.0377         21.7350         96.0680          1.9371          0.9997          3.6092       5300.0654         82.5787          0.0591          2.5750          2.5710
       2800.8834          8.5000          8.5904       1354.0819         22.5404         22.2351         97.6242          1.9207          0.9997          3.5841       5300.3457         82.5587          0.0611          2.5635          2.5595
       2800.9596          8.5000          8.5903       1366.0988         23.0004         22.6935         99.2949          1.9047          1.0001          6.4185       5303.2021         82.5571          0.0640          2.5522          2.5481
       2801.0358          8.5000          8.5897       1378.3602         23.3875         23.0799        100.8221          1.8919          1.0007         10.5615       5306.8721         82.5478          0.0680          2.5430          2.5389
       2801.1120          8.5000          8.5877       1388.3927         23.7184         23.4117        102.0643          1.8855          1.0014         13.6022       5308.8828         82.5444          0.0731          2.5377          2.5335
       2801.1882          8.5000          8.5823       1395.4480         24.0355         23.7330        103.0049          1.8885          1.0017         13.3004       5307.1274         82.5473          0.0788          2.5371          2.5330
       2801.2644          8.5000          8.5725       1401.4949         24.3642         24.0703        103.7206          1.9027          1.0017          9.2039       5301.4370         82.5562          0.0845          2.5412          2.5371
       2801.3406          8.5000          8.5578       1409.0454         24.7033         24.4228        104.3200          1.9281          1.0012          2.9949       5293.8130         82.5838          0.0892          2.5486          2.5445
