~Version Information
 VERS.                2.00:   CWLS log ASCII Standard -VERSION 2.00
 WRAP.                  NO:   One line per frame      
~Well Information Block
#MNEM.UNIT                     Data                     Description
#----.----   ----------------------------------------   -------------------------------
 STRT.M                                     2542.3368 : Starting Depth
 STOP.M                                     2933.0142 : Ending Depth
 STEP.M                                        0.0762 : Level Spacing
 NULL.                                      -999.2500 : Absent Value
 COMP.       GEOTHERMIE DELFT                         : Company
 WELL.       GT-01                                    : Well
 FLD .       DELFT                                    : Field
 LOC .       LOC400#3                                 : Location
 PROV.                                                : Province
 CTRY.       NETHERLANDS                              : Country
 SRVC.       Baker Hughes                             : Service Company
 DATE.       10-SEP-2023                              : Log Date
 UWI .                                                : Unique Well ID
 LIC .                                                : License Number
~Curve Information Block
#MNEM    .UNIT        API Codes     Curve Description
#--------.--------   LG--CV-CL--M   ---------------------------------------------------
 DEPT    .M          99 995 99  1 : Depth
 BIT     .in         70 282  1  1 : Bit size
 CALX    .in         70 280 13  1 : Caliper from X-axis of XY caliper(s)
 CHT     .lbf        99 635 99  1 : Cable head tension
 CN      .pu         42 890  1  1 : Compensated neutron porosity
 CNC     .pu         42 995 99  1 : Borehole size corrected compensated neutron porosity
 GR      .gAPI       30 310  1  1 : Gamma ray
 PE      .b/e        45 358  1  1 : Photo electric cross-section
 SPD     .m/min      99 636 99  1 : Speed
 TEN     .lbf        99 635 99  1 : Differential tension
 TTEN    .lbf        99 635 99  1 : Total tension
 WTBH    .degC       99 995 99  1 : Temperature of borehole
 ZCOR    .g/cm3      45 356 99  1 : Density correction
 ZDEN    .g/cm3      45 350  1  1 : Formation bulk density
 ZDNC    .g/cm3      94 995 99  1 : Borehole size/mud weight corrected density
~Parameter Information Block
#MNEM.UNIT                     Value                    Description
#----.----   ----------------------------------------   -------------------------------
 HID1.       COMPENSATED Z-DENSILOG^S                 : Header Identifier
 HID2.       COMPENSATED NEUTRON LOG                  : Header Identifier
 HID3.       GAMMA RAY LOG                            : Header Identifier
 FILE.       207823                                   : File Number
 CMT1.       FIELD PRINT                              : Comment 1  
 CMT2.       1:1000 SCALE                             : Comment 2  
 CMT3.       1:200 SCALE                              : Comment 3  
 FL  .       LAT:    52 DEG 0 MIN 1.562 SEC N         : Field Location
 FL1 .       LONG: 4 DEG 22 MIN 10.9 SEC E            : Field Location 1
 OS1 .       DSL,BHP                                  : Other Services Line 1
 OS2 .       HDIL/XMAC                                : Other Services Line 2
 OS3 .       MREX                                     : Other Services Line 3
 OS4 .       GXPL/UXPL                                : Other Services Line 4
 PDAT.       MSL                                      : Permanent Datum
 EPD .M      7.46                                     : Elevation Of Perm. Datum
 LMF .       DF                                       : Log Measured From
 APD .M      7.46                                     : Above Permanent Datum
 DMF .       DF                                       : Drilling Measured From
 EKB .M      7.46                                     : Elevation Of Kelly Bushing
 EDF .M      7.46                                     : Elevation Of Derrick Floor
 EGL .M      -0.54                                    : Elevation Of Ground Level
 RUN .       3                                        : Run Number
 TRIP.       1                                        : Trip Number
 TDD .M      2931.0                                   : Total Depth - Driller
 TDL .M      2930.8                                   : Total Depth - Logger
 BLI .M      2920.5                                   : Bottom Log Interval
 TLI .M      2570.0                                   : Top Log Interval
 CSIZ.IN     9.625                                    : Casing Size
 CBDR.M      2572.0                                   : Casing Bottom - Driller
 CBLO.M      2570.0                                   : Casing Bottom - Logger
 BS  .IN     8.5                                      : Bit Size
 DFT .       OBM                                      : Drilling Fluid Type
 DFD .G/C3   1.12                                     : Drilling Fluid Density
 DFV .CP     21                                       : Drilling Fluid Viscosity
 DFL .ML     1.4                                      : Drilling Fluid Loss
 MSS .       ACTIVE PIT                               : Mud Sample Source
 MFSS.       N/A                                      : Mud Filtrate Sample Source
 MCSS.       N/A                                      : Mud Cake Sample Source
 TSC .       41 HRS 30 MINS                           : Time Since Circulation
 MRT .DEGC   83.1                                     : Maximum Recorded Temperature
 LUN .       Z006823                                  : Logging Unit Number
 LUL .       DEN HELDER                               : Logging Unit Location
 ENGI.       HEKEL/BUHNE/BUJOR                        : Engineer's Name
 WITN.       AUKE BARNHOORN                           : Witness' Name
 TSTR.       /ZDL/CN/GR/                              : Title Service Mnemonic
 TSTG.       NA                                       : Title Service Mnemonic
 STUS.       FINAL                                    : Status
 LCNM.       Baker Hughes                             : Logging Company Name
 LCC .       150                                      : Logging Company Code
 OPMD.       OH.WIRE                                  : Operation Mode
 PANA.       HEKEL/BUHNE/BUJOR                        : Processing Analyst
 PCON.       Baker Hughes                             : Processing Contractor
 APIN.                                                : API Serial Number
 LATI.DEG    0.0000                                   : Latitude
 LONG.DEG    0.0000                                   : Longitude
~Other information
GENERAL                                                                         
* LOG CORRELATED TO HDIL-XMAC RUN 1.1 FROM 09-SEP-2023.                         
* MAXIMUM DEVIATION OVER OPEN HOLE LOGGED INTERVAL IS 50.7 DEG AT 2700 M.       
* LAST CIRCULATION AT TD STOPPED AT  21 HRS ON 08-SEP-23 AFTER 3.25 HRS.        
* TOOLSTRING REACHED TD AT 14:30 HRS ON 10-SEP-2023.                            
TEMPERATURE:                                                                    
* MAXIMUM RECORDED TEMPERATURE FROM TTRM WAS 83.1 DEG C AT 2850 M.              
MUD DATA                                                                        
* MUD TYPE: OBM                                                                 
* MUD WEIGHT: 1.12 SG                                                           
* OIL WATER RATIO = 66.09 / 33.91                                               
* SOLIDS FRACTION = 10.9 %                                                      
* WATER % BY VOLUME = 29.5 %                                                    
* WATER PHASE CHLORIDES = 169491 MG/L                                           
* WHOLE MUD CHLORIDE CONTENT = 50000 MG/L                                       
* WHOLE MUD NACL EQUIVALENT = 79000 PPM                                         
GAMMA RAY / SPECTRALOG                                                          
* GAMMA RAY RUN DECENTRALISED.                                                  
* SPECTRALOG RECORDED BUT NOT PRESENTED FROM THIS RUN.                          
ZDL/CN                                                                          
* ZDL/CN DATA PRESENTED ON LIMESTONE SCALES.                                    
* CNC CURVE IS CALIPER AND SALINITY CORRECTED AND PRESENTED ON LIMESTONE MATRIX 
* NACL EQUIVALENT = 79000 PPM.                                                  
* ZDL/CN/GR RECORDED AT SAMPLE RATE OF 4 SPF.                                   
* DENSITY CURVE ZDNC IS BOREHOLE CORRECTED.                                     
* ZDL/CN LOGGED TOGETHER WITH MREX PASSES. PRESENTED LOG IS FROM                
  PP + LIGHT OIL PASS, RECORDED AT 1 M/MIN.                                     
#  Curve Data
~A    DEPT            BIT             CALX            CHT             CN              CNC             GR              PE              SPD             TEN             TTEN            WTBH            ZCOR            ZDEN            ZDNC        
# ...
       2848.0512          8.5000          8.4395       1335.5408         18.0860         17.9218         99.9765          1.8685          1.0009          6.6573       5265.5313         83.0708          0.0390          2.6388          2.6349
       2848.1274          8.5000          8.4517       1333.1051         16.9716         16.8019         99.4630          1.8480          1.0005         -5.0565       5253.2539         83.0566          0.0387          2.6437          2.6398
       2848.2036          8.5000          8.4600       1321.1084         15.7782         15.6079         98.6286          1.8486          1.0000        -34.5321       5224.5220         83.0269          0.0372          2.6463          2.6425
       2848.2798          8.5000          8.4655       1301.3975         14.6924         14.5241         97.7301          1.8689          1.0000        -71.4615       5190.3740         83.0233          0.0347          2.6464          2.6426
       2848.3560          8.5000          8.4696       1280.8446         13.8541         13.6881         97.0524          1.9073          1.0005       -102.0667       5164.5747         83.0064          0.0315          2.6445          2.6407
       2848.4322          8.5000          8.4722       1267.4288         13.3310         13.1667         96.7913          1.9669          1.0012       -115.8783       5156.8296         82.9774          0.0282          2.6417          2.6379
       2848.5084          8.5000          8.4731       1265.4646         13.1179         12.9544         97.0211          2.0573          1.0016       -110.8677       5168.0503         82.9647          0.0253          2.6397          2.6358
       2848.5846          8.5000          8.4721       1274.5803         13.1626         12.9995         97.6690          2.1915          1.0017        -92.0322       5192.2539         82.9559          0.0235          2.6405          2.6367
       2848.6608          8.5000          8.4695       1290.6870         13.3578         13.1950         98.5617          2.3799          1.0017        -66.9741       5221.2988         82.9253          0.0232          2.6463          2.6425
       2848.7370          8.5000          8.4660       1307.8387         13.5670         13.4051         99.5041          2.6200          1.0017        -42.6308       5248.2173         82.9276          0.0246          2.6579          2.6541
       2848.8132          8.5000          8.4623       1320.3770         13.6876         13.5273        100.2711          2.8881          1.0019        -24.1258       5268.2280         82.9233          0.0270          2.6742          2.6706
       2848.8894          8.5000          8.4597       1325.7340         13.6840         13.5254        100.6408          3.1390          1.0020        -14.1551       5279.1357         82.9520          0.0296          2.6921          2.6885
       2848.9656          8.5000          8.4596       1325.5012         13.5554         13.3977        100.4724          3.3275          1.0019        -13.3168       5280.8496         83.0119          0.0311          2.7067          2.7031
       2849.0418          8.5000          8.4617       1324.3314         13.3034         13.1459         99.8345          3.4367          1.0017        -18.8251       5276.5127         83.0724          0.0306          2.7137          2.7102
       2849.1180          8.5000          8.4648       1326.5962         12.9430         12.7859         98.9268          3.4814          1.0012        -24.6938       5272.1724         83.1164          0.0280          2.7118          2.7083
       2849.1942          8.5000          8.4679       1333.5361         12.5009         12.3449         97.9362          3.4827          1.0007        -25.6333       5272.8809         83.1804          0.0247          2.7030          2.6995
       2849.2704          8.5000          8.4701       1343.2894         12.0223         11.8683         96.9025          3.4443          1.0003        -19.0249       5280.8721         83.2204          0.0222          2.6918          2.6882
       2849.3466          8.5000          8.4706       1352.8967         11.5769         11.4259         95.7378          3.3499          1.0001         -5.2243       5295.4023         83.2337          0.0217          2.6823          2.6786
       2849.4228          8.5000          8.4694       1359.3821         11.2311         11.0833         94.3089          3.1845          0.9997         11.1724       5311.6533         83.2458          0.0233          2.6760          2.6723
       2849.4990          8.5000          8.4672       1360.6194         11.0246         10.8795         92.5895          2.9561          0.9995         22.1916       5321.7725         83.2295          0.0262          2.6722          2.6685
       2849.5752          8.5000          8.4656       1355.8668         10.9707         10.8269         90.7010          2.6990          0.9992         20.3834       5318.8462         83.1860          0.0289          2.6684          2.6647
       2849.6514          8.5000          8.4655       1346.2773         11.0504         10.9061         88.8704          2.4554          0.9991          5.2771       5303.1543         83.1707          0.0303          2.6628          2.6590
       2849.7276          8.5000          8.4668       1334.0183         11.2172         11.0710         87.2446          2.2569          0.9990        -16.3111       5282.0723         83.1454          0.0299          2.6547          2.6509
       2849.8038          8.5000          8.4689       1320.8542         11.4156         11.2667         85.7888          2.1159          0.9987        -35.9365       5264.1621         83.1380          0.0282          2.6452          2.6413
       2849.8800          8.5000          8.4714       1307.9302         11.5962         11.4445         84.3680          2.0297          0.9981        -49.3266       5253.4517         83.1228          0.0260          2.6362          2.6323
       2849.9562          8.5000          8.4743       1296.0701         11.7194         11.5652         82.9094          1.9863          0.9976        -57.7914       5248.3008         83.1139          0.0242          2.6295          2.6256
       2850.0324          8.5000          8.4775       1286.4629         11.7613         11.6049         81.4862          1.9707          0.9974        -64.8959       5244.9434         83.0855          0.0232          2.6261          2.6222
       2850.1086          8.5000          8.4815       1280.1866         11.7304         11.5719         80.2988          1.9685          0.9979        -73.5746       5240.4053         83.0661          0.0232          2.6256          2.6217
       2850.1848          8.5000          8.4866       1277.2795         11.6548         11.4940         79.6183          1.9683          0.9989        -85.2065       5233.3721         83.0305          0.0236          2.6270          2.6231
       2850.2610          8.5000          8.4926       1277.2144         11.5695         11.4059         79.6285          1.9620          1.0001        -98.7339       5224.9751         82.9943          0.0240          2.6289          2.6250
       2850.3372          8.5000          8.4984       1278.9729         11.4920         11.3257         80.2764          1.9458          1.0010       -112.5336       5216.8750         82.9601          0.0240          2.6301          2.6262
       2850.4134          8.5000          8.5021       1280.9645         11.4108         11.2431         81.3042          1.9200          1.0014       -126.6038       5209.1172         82.9433          0.0234          2.6302          2.6263
       2850.4896          8.5000          8.5016       1282.2186         11.3027         11.1362         82.4028          1.8881          1.0014       -142.9422       5199.8398         82.9318          0.0222          2.6291          2.6253
       2850.5658          8.5000          8.4959       1283.3431         11.1644         11.0023         83.3222          1.8548          1.0011       -162.6192       5188.2197         82.9661          0.0206          2.6271          2.6232
