~Version Information
 VERS.                2.00:   CWLS log ASCII Standard -VERSION 2.00
 WRAP.                  NO:   One line per frame      
~Well Information Block
#MNEM.UNIT                     Data                     Description
#----.----   ----------------------------------------   -------------------------------
 STRT.M                                     2542.3368 : Starting Depth
 STOP.M                                     2933.0142 : Ending Depth
 STEP.M                                        0.0762 : Level Spacing
 NULL.                                      -999.2500 : Absent Value
 COMP.       GEOTHERMIE DELFT                         : Company
 WELL.       GT-01                                    : Well
 FLD .       DELFT                                    : Field
 LOC .       LOC400#3                                 : Location
 PROV.                                                : Province
 CTRY.       NETHERLANDS                              : Country
 SRVC.       Baker Hughes                             : Service Company
 DATE.       10-SEP-2023                              : Log Date
 UWI .                                                : Unique Well ID
 LIC .                                                : License Number
~Curve Information Block
#MNEM    .UNIT        API Codes     Curve Description
#--------.--------   LG--CV-CL--M   ---------------------------------------------------
 DEPT    .M          99 995 99  1 : Depth
 BIT     .in         70 282  1  1 : Bit size
 CALX    .in         70 280 13  1 : Caliper from X-axis of XY caliper(s)
 CHT     .lbf        99 635 99  1 : Cable head tension
 CN      .pu         42 890  1  1 : Compensated neutron porosity
 CNC     .pu         42 995 99  1 : Borehole size corrected compensated neutron porosity
 GR      .gAPI       30 310  1  1 : Gamma ray
 PE      .b/e        45 358  1  1 : Photo electric cross-section
 SPD     .m/min      99 636 99  1 : Speed
 TEN     .lbf        99 635 99  1 : Differential tension
 TTEN    .lbf        99 635 99  1 : Total tension
 WTBH    .degC       99 995 99  1 : Temperature of borehole
 ZCOR    .g/cm3      45 356 99  1 : Density correction
 ZDEN    .g/cm3      45 350  1  1 : Formation bulk density
 ZDNC    .g/cm3      94 995 99  1 : Borehole size/mud weight corrected density
~Parameter Information Block
#MNEM.UNIT                     Value                    Description
#----.----   ----------------------------------------   -------------------------------
 HID1.       COMPENSATED Z-DENSILOG^S                 : Header Identifier
 HID2.       COMPENSATED NEUTRON LOG                  : Header Identifier
 HID3.       GAMMA RAY LOG                            : Header Identifier
 FILE.       207823                                   : File Number
 CMT1.       FIELD PRINT                              : Comment 1  
 CMT2.       1:1000 SCALE                             : Comment 2  
 CMT3.       1:200 SCALE                              : Comment 3  
 FL  .       LAT:    52 DEG 0 MIN 1.562 SEC N         : Field Location
 FL1 .       LONG: 4 DEG 22 MIN 10.9 SEC E            : Field Location 1
 OS1 .       DSL,BHP                                  : Other Services Line 1
 OS2 .       HDIL/XMAC                                : Other Services Line 2
 OS3 .       MREX                                     : Other Services Line 3
 OS4 .       GXPL/UXPL                                : Other Services Line 4
 PDAT.       MSL                                      : Permanent Datum
 EPD .M      7.46                                     : Elevation Of Perm. Datum
 LMF .       DF                                       : Log Measured From
 APD .M      7.46                                     : Above Permanent Datum
 DMF .       DF                                       : Drilling Measured From
 EKB .M      7.46                                     : Elevation Of Kelly Bushing
 EDF .M      7.46                                     : Elevation Of Derrick Floor
 EGL .M      -0.54                                    : Elevation Of Ground Level
 RUN .       3                                        : Run Number
 TRIP.       1                                        : Trip Number
 TDD .M      2931.0                                   : Total Depth - Driller
 TDL .M      2930.8                                   : Total Depth - Logger
 BLI .M      2920.5                                   : Bottom Log Interval
 TLI .M      2570.0                                   : Top Log Interval
 CSIZ.IN     9.625                                    : Casing Size
 CBDR.M      2572.0                                   : Casing Bottom - Driller
 CBLO.M      2570.0                                   : Casing Bottom - Logger
 BS  .IN     8.5                                      : Bit Size
 DFT .       OBM                                      : Drilling Fluid Type
 DFD .G/C3   1.12                                     : Drilling Fluid Density
 DFV .CP     21                                       : Drilling Fluid Viscosity
 DFL .ML     1.4                                      : Drilling Fluid Loss
 MSS .       ACTIVE PIT                               : Mud Sample Source
 MFSS.       N/A                                      : Mud Filtrate Sample Source
 MCSS.       N/A                                      : Mud Cake Sample Source
 TSC .       41 HRS 30 MINS                           : Time Since Circulation
 MRT .DEGC   83.1                                     : Maximum Recorded Temperature
 LUN .       Z006823                                  : Logging Unit Number
 LUL .       DEN HELDER                               : Logging Unit Location
 ENGI.       HEKEL/BUHNE/BUJOR                        : Engineer's Name
 WITN.       AUKE BARNHOORN                           : Witness' Name
 TSTR.       /ZDL/CN/GR/                              : Title Service Mnemonic
 TSTG.       NA                                       : Title Service Mnemonic
 STUS.       FINAL                                    : Status
 LCNM.       Baker Hughes                             : Logging Company Name
 LCC .       150                                      : Logging Company Code
 OPMD.       OH.WIRE                                  : Operation Mode
 PANA.       HEKEL/BUHNE/BUJOR                        : Processing Analyst
 PCON.       Baker Hughes                             : Processing Contractor
 APIN.                                                : API Serial Number
 LATI.DEG    0.0000                                   : Latitude
 LONG.DEG    0.0000                                   : Longitude
~Other information
GENERAL                                                                         
* LOG CORRELATED TO HDIL-XMAC RUN 1.1 FROM 09-SEP-2023.                         
* MAXIMUM DEVIATION OVER OPEN HOLE LOGGED INTERVAL IS 50.7 DEG AT 2700 M.       
* LAST CIRCULATION AT TD STOPPED AT  21 HRS ON 08-SEP-23 AFTER 3.25 HRS.        
* TOOLSTRING REACHED TD AT 14:30 HRS ON 10-SEP-2023.                            
TEMPERATURE:                                                                    
* MAXIMUM RECORDED TEMPERATURE FROM TTRM WAS 83.1 DEG C AT 2850 M.              
MUD DATA                                                                        
* MUD TYPE: OBM                                                                 
* MUD WEIGHT: 1.12 SG                                                           
* OIL WATER RATIO = 66.09 / 33.91                                               
* SOLIDS FRACTION = 10.9 %                                                      
* WATER % BY VOLUME = 29.5 %                                                    
* WATER PHASE CHLORIDES = 169491 MG/L                                           
* WHOLE MUD CHLORIDE CONTENT = 50000 MG/L                                       
* WHOLE MUD NACL EQUIVALENT = 79000 PPM                                         
GAMMA RAY / SPECTRALOG                                                          
* GAMMA RAY RUN DECENTRALISED.                                                  
* SPECTRALOG RECORDED BUT NOT PRESENTED FROM THIS RUN.                          
ZDL/CN                                                                          
* ZDL/CN DATA PRESENTED ON LIMESTONE SCALES.                                    
* CNC CURVE IS CALIPER AND SALINITY CORRECTED AND PRESENTED ON LIMESTONE MATRIX 
* NACL EQUIVALENT = 79000 PPM.                                                  
* ZDL/CN/GR RECORDED AT SAMPLE RATE OF 4 SPF.                                   
* DENSITY CURVE ZDNC IS BOREHOLE CORRECTED.                                     
* ZDL/CN LOGGED TOGETHER WITH MREX PASSES. PRESENTED LOG IS FROM                
  PP + LIGHT OIL PASS, RECORDED AT 1 M/MIN.                                     
#  Curve Data
~A    DEPT            BIT             CALX            CHT             CN              CNC             GR              PE              SPD             TEN             TTEN            WTBH            ZCOR            ZDEN            ZDNC        
# ...
       2723.6928          8.5000          8.5452       1429.6208         21.6978         21.4351        110.8759          2.0030          1.0008         65.9167       5151.3848         81.3773          0.0355          2.6052          2.6013
       2723.7690          8.5000          8.5264       1438.3815         21.3284         21.0831        109.1988          1.9946          1.0005        102.0752       5182.8618         81.4065          0.0337          2.6093          2.6054
       2723.8452          8.5000          8.5066       1443.5449         20.8666         20.6397        107.5591          1.9837          0.9998        124.8377       5199.2334         81.4668          0.0326          2.6148          2.6109
       2723.9214          8.5000          8.4894       1443.1056         20.3153         20.1044        106.1913          1.9728          0.9990        125.7343       5193.0581         81.5014          0.0316          2.6206          2.6167
       2723.9976          8.5000          8.4789       1437.2378         19.7125         19.5120        105.1611          1.9642          0.9983        105.0387       5165.8804         81.5343          0.0302          2.6252          2.6213
       2724.0738          8.5000          8.4771       1428.3087         19.1349         18.9377        104.3180          1.9583          0.9982         73.4378       5129.3037         81.5370          0.0279          2.6271          2.6232
       2724.1500          8.5000          8.4830       1419.7654         18.6430         18.4428        103.4106          1.9528          0.9988         46.6276       5099.1416         81.5223          0.0248          2.6257          2.6218
       2724.2262          8.5000          8.4931       1413.6816         18.2294         18.0230        102.1137          1.9436          0.9998         35.3148       5085.4541         81.4782          0.0212          2.6215          2.6176
       2724.3024          8.5000          8.5031       1409.4694         17.8023         17.5902        100.2281          1.9273          1.0007         39.4084       5087.2383         81.4339          0.0177          2.6159          2.6120
       2724.3786          8.5000          8.5091       1405.6621         17.2192         17.0057         97.8003          1.9038          1.0013         50.8321       5095.7720         81.3794          0.0150          2.6107          2.6067
       2724.4548          8.5000          8.5097       1401.5139         16.3992         16.1901         95.1553          1.8768          1.0014         58.6087       5099.9883         81.2920          0.0134          2.6074          2.6034
       2724.5310          8.5000          8.5062       1396.5975         15.4027         15.2023         92.8000          1.8534          1.0011         54.4551       5092.0986         81.2303          0.0132          2.6067          2.6028
       2724.6072          8.5000          8.5015       1390.8425         14.3837         14.1934         91.1893          1.8406          1.0006         36.1640       5070.7134         81.1986          0.0141          2.6087          2.6047
       2724.6834          8.5000          8.4986       1384.9132         13.4855         13.3035         90.5405          1.8426          1.0001          7.8307       5040.6821         81.1726          0.0158          2.6125          2.6086
       2724.7596          8.5000          8.4994       1379.9990         12.7944         12.6172         90.7661          1.8591          0.9996        -22.6472       5010.2939         81.1937          0.0179          2.6173          2.6134
       2724.8358          8.5000          8.5047       1377.6738         12.3374         12.1606         91.4874          1.8854          0.9994        -46.1035       4988.6025         81.2077          0.0202          2.6220          2.6181
       2724.9120          8.5000          8.5132       1378.9672         12.1082         11.9283         92.2863          1.9136          0.9994        -57.7960       4979.8135         81.2400          0.0225          2.6263          2.6224
       2724.9882          8.5000          8.5235       1383.8362         12.0896         11.9038         92.8883          1.9364          0.9997        -59.5124       4981.4980         81.2885          0.0246          2.6298          2.6259
       2725.0644          8.5000          8.5338       1392.1643         12.2595         12.0661         93.2838          1.9498          1.0002        -56.3201       4988.1113         81.3629          0.0265          2.6326          2.6288
       2725.1406          8.5000          8.5435       1403.5814         12.5886         12.3865         93.6160          1.9542          1.0008        -53.7706       4993.8745         81.4450          0.0278          2.6349          2.6311
       2725.2168          8.5000          8.5537       1416.2134         13.0251         12.8128         93.9972          1.9537          1.0012        -56.5809       4994.1299         81.5162          0.0285          2.6366          2.6328
       2725.2930          8.5000          8.5656       1427.3384         13.4809         13.2570         94.4646          1.9530          1.0012        -66.8883       4987.0518         81.5582          0.0282          2.6376          2.6338
       2725.3692          8.5000          8.5787       1434.7654         13.8770         13.6411         95.0126          1.9557          1.0007        -83.9670       4973.7881         81.5684          0.0269          2.6379          2.6342
       2725.4454          8.5000          8.5910       1438.0811         14.2253         13.9782         95.6586          1.9624          1.0002       -102.9270       4959.5449         81.5591          0.0249          2.6375          2.6338
       2725.5216          8.5000          8.6001       1438.7567         14.6421         14.3850         96.4778          1.9713          0.9999       -117.0406       4951.0527         81.5574          0.0224          2.6365          2.6328
       2725.5978          8.5000          8.6040       1439.2792         15.2608         14.9951         97.5787          1.9802          0.9999       -122.0531       4952.2334         81.5370          0.0199          2.6353          2.6315
       2725.6740          8.5000          8.6017       1441.4572         16.1437         15.8713         99.0159          1.9876          1.0002       -118.6667       4961.9004         81.5256          0.0177          2.6341          2.6304
       2725.7502          8.5000          8.5947       1444.8381         17.2414         16.9646        100.7101          1.9940          1.0004       -111.8513       4974.7295         81.4977          0.0161          2.6335          2.6297
       2725.8264          8.5000          8.5855       1447.0981         18.4257         18.1468        102.4748          2.0002          1.0001       -107.8589       4984.4219         81.4552          0.0154          2.6335          2.6297
       2725.9026          8.5000          8.5774       1445.2668         19.5598         19.2800        104.1022          2.0063          0.9995       -110.6865       4987.2432         81.4405          0.0155          2.6339          2.6301
       2725.9788          8.5000          8.5732       1438.9907         20.5554         20.2736        105.4817          2.0121          0.9988       -118.7077       4985.1748         81.4282          0.0162          2.6344          2.6306
       2726.0550          8.5000          8.5757       1431.9675         21.3944         21.1066        106.6427          2.0186          0.9984       -124.0283       4986.1797         81.4061          0.0173          2.6344          2.6306
       2726.1312          8.5000          8.5863       1429.2029         22.1138         21.8137        107.6458          2.0270          0.9986       -118.5485       4997.9307         81.3887          0.0188          2.6331          2.6294
       2726.2074          8.5000          8.6050       1433.3154         22.7690         22.4498        108.5359          2.0383          0.9992        -99.8047       5022.1563         81.3510          0.0208          2.6303          2.6265
