~Version Information
 VERS.                2.00:   CWLS log ASCII Standard -VERSION 2.00
 WRAP.                  NO:   One line per frame      
~Well Information Block
#MNEM.UNIT                     Data                     Description
#----.----   ----------------------------------------   -------------------------------
 STRT.M                                     2542.3368 : Starting Depth
 STOP.M                                     2933.0142 : Ending Depth
 STEP.M                                        0.0762 : Level Spacing
 NULL.                                      -999.2500 : Absent Value
 COMP.       GEOTHERMIE DELFT                         : Company
 WELL.       GT-01                                    : Well
 FLD .       DELFT                                    : Field
 LOC .       LOC400#3                                 : Location
 PROV.                                                : Province
 CTRY.       NETHERLANDS                              : Country
 SRVC.       Baker Hughes                             : Service Company
 DATE.       10-SEP-2023                              : Log Date
 UWI .                                                : Unique Well ID
 LIC .                                                : License Number
~Curve Information Block
#MNEM    .UNIT        API Codes     Curve Description
#--------.--------   LG--CV-CL--M   ---------------------------------------------------
 DEPT    .M          99 995 99  1 : Depth
 BIT     .in         70 282  1  1 : Bit size
 CALX    .in         70 280 13  1 : Caliper from X-axis of XY caliper(s)
 CHT     .lbf        99 635 99  1 : Cable head tension
 CN      .pu         42 890  1  1 : Compensated neutron porosity
 CNC     .pu         42 995 99  1 : Borehole size corrected compensated neutron porosity
 GR      .gAPI       30 310  1  1 : Gamma ray
 PE      .b/e        45 358  1  1 : Photo electric cross-section
 SPD     .m/min      99 636 99  1 : Speed
 TEN     .lbf        99 635 99  1 : Differential tension
 TTEN    .lbf        99 635 99  1 : Total tension
 WTBH    .degC       99 995 99  1 : Temperature of borehole
 ZCOR    .g/cm3      45 356 99  1 : Density correction
 ZDEN    .g/cm3      45 350  1  1 : Formation bulk density
 ZDNC    .g/cm3      94 995 99  1 : Borehole size/mud weight corrected density
~Parameter Information Block
#MNEM.UNIT                     Value                    Description
#----.----   ----------------------------------------   -------------------------------
 HID1.       COMPENSATED Z-DENSILOG^S                 : Header Identifier
 HID2.       COMPENSATED NEUTRON LOG                  : Header Identifier
 HID3.       GAMMA RAY LOG                            : Header Identifier
 FILE.       207823                                   : File Number
 CMT1.       FIELD PRINT                              : Comment 1  
 CMT2.       1:1000 SCALE                             : Comment 2  
 CMT3.       1:200 SCALE                              : Comment 3  
 FL  .       LAT:    52 DEG 0 MIN 1.562 SEC N         : Field Location
 FL1 .       LONG: 4 DEG 22 MIN 10.9 SEC E            : Field Location 1
 OS1 .       DSL,BHP                                  : Other Services Line 1
 OS2 .       HDIL/XMAC                                : Other Services Line 2
 OS3 .       MREX                                     : Other Services Line 3
 OS4 .       GXPL/UXPL                                : Other Services Line 4
 PDAT.       MSL                                      : Permanent Datum
 EPD .M      7.46                                     : Elevation Of Perm. Datum
 LMF .       DF                                       : Log Measured From
 APD .M      7.46                                     : Above Permanent Datum
 DMF .       DF                                       : Drilling Measured From
 EKB .M      7.46                                     : Elevation Of Kelly Bushing
 EDF .M      7.46                                     : Elevation Of Derrick Floor
 EGL .M      -0.54                                    : Elevation Of Ground Level
 RUN .       3                                        : Run Number
 TRIP.       1                                        : Trip Number
 TDD .M      2931.0                                   : Total Depth - Driller
 TDL .M      2930.8                                   : Total Depth - Logger
 BLI .M      2920.5                                   : Bottom Log Interval
 TLI .M      2570.0                                   : Top Log Interval
 CSIZ.IN     9.625                                    : Casing Size
 CBDR.M      2572.0                                   : Casing Bottom - Driller
 CBLO.M      2570.0                                   : Casing Bottom - Logger
 BS  .IN     8.5                                      : Bit Size
 DFT .       OBM                                      : Drilling Fluid Type
 DFD .G/C3   1.12                                     : Drilling Fluid Density
 DFV .CP     21                                       : Drilling Fluid Viscosity
 DFL .ML     1.4                                      : Drilling Fluid Loss
 MSS .       ACTIVE PIT                               : Mud Sample Source
 MFSS.       N/A                                      : Mud Filtrate Sample Source
 MCSS.       N/A                                      : Mud Cake Sample Source
 TSC .       41 HRS 30 MINS                           : Time Since Circulation
 MRT .DEGC   83.1                                     : Maximum Recorded Temperature
 LUN .       Z006823                                  : Logging Unit Number
 LUL .       DEN HELDER                               : Logging Unit Location
 ENGI.       HEKEL/BUHNE/BUJOR                        : Engineer's Name
 WITN.       AUKE BARNHOORN                           : Witness' Name
 TSTR.       /ZDL/CN/GR/                              : Title Service Mnemonic
 TSTG.       NA                                       : Title Service Mnemonic
 STUS.       FINAL                                    : Status
 LCNM.       Baker Hughes                             : Logging Company Name
 LCC .       150                                      : Logging Company Code
 OPMD.       OH.WIRE                                  : Operation Mode
 PANA.       HEKEL/BUHNE/BUJOR                        : Processing Analyst
 PCON.       Baker Hughes                             : Processing Contractor
 APIN.                                                : API Serial Number
 LATI.DEG    0.0000                                   : Latitude
 LONG.DEG    0.0000                                   : Longitude
~Other information
GENERAL                                                                         
* LOG CORRELATED TO HDIL-XMAC RUN 1.1 FROM 09-SEP-2023.                         
* MAXIMUM DEVIATION OVER OPEN HOLE LOGGED INTERVAL IS 50.7 DEG AT 2700 M.       
* LAST CIRCULATION AT TD STOPPED AT  21 HRS ON 08-SEP-23 AFTER 3.25 HRS.        
* TOOLSTRING REACHED TD AT 14:30 HRS ON 10-SEP-2023.                            
TEMPERATURE:                                                                    
* MAXIMUM RECORDED TEMPERATURE FROM TTRM WAS 83.1 DEG C AT 2850 M.              
MUD DATA                                                                        
* MUD TYPE: OBM                                                                 
* MUD WEIGHT: 1.12 SG                                                           
* OIL WATER RATIO = 66.09 / 33.91                                               
* SOLIDS FRACTION = 10.9 %                                                      
* WATER % BY VOLUME = 29.5 %                                                    
* WATER PHASE CHLORIDES = 169491 MG/L                                           
* WHOLE MUD CHLORIDE CONTENT = 50000 MG/L                                       
* WHOLE MUD NACL EQUIVALENT = 79000 PPM                                         
GAMMA RAY / SPECTRALOG                                                          
* GAMMA RAY RUN DECENTRALISED.                                                  
* SPECTRALOG RECORDED BUT NOT PRESENTED FROM THIS RUN.                          
ZDL/CN                                                                          
* ZDL/CN DATA PRESENTED ON LIMESTONE SCALES.                                    
* CNC CURVE IS CALIPER AND SALINITY CORRECTED AND PRESENTED ON LIMESTONE MATRIX 
* NACL EQUIVALENT = 79000 PPM.                                                  
* ZDL/CN/GR RECORDED AT SAMPLE RATE OF 4 SPF.                                   
* DENSITY CURVE ZDNC IS BOREHOLE CORRECTED.                                     
* ZDL/CN LOGGED TOGETHER WITH MREX PASSES. PRESENTED LOG IS FROM                
  PP + LIGHT OIL PASS, RECORDED AT 1 M/MIN.                                     
#  Curve Data
~A    DEPT            BIT             CALX            CHT             CN              CNC             GR              PE              SPD             TEN             TTEN            WTBH            ZCOR            ZDEN            ZDNC        
# ...
       2749.6008          8.5000          8.4382       1368.0333         16.7153         16.5566          9.8916          1.3661          1.0009         96.0937       5217.0249         81.8756          0.0160          2.3176          2.3133
       2749.6770          8.5000          8.4364       1372.1826         16.8739         16.7160          9.9416          1.3519          1.0004        105.3030       5221.0913         81.8158          0.0183          2.3193          2.3151
       2749.7532          8.5000          8.4353       1370.7410         17.1379         16.9799          9.9180          1.3409          0.9999        102.7076       5213.2529         81.7592          0.0213          2.3229          2.3187
       2749.8294          8.5000          8.4357       1364.0990         17.4819         17.3225          9.8147          1.3360          0.9995         89.2739       5195.0112         81.7228          0.0247          2.3276          2.3234
       2749.9056          8.5000          8.4372       1353.0203         17.8326         17.6709          9.6574          1.3368          0.9991         69.1186       5170.8398         81.6960          0.0279          2.3325          2.3282
       2749.9818          8.5000          8.4390       1339.1925         18.0975         17.9337          9.4982          1.3402          0.9985         46.6367       5145.2832         81.7069          0.0305          2.3364          2.3322
       2750.0580          8.5000          8.4402       1325.0999         18.2183         18.0531          9.3851          1.3422          0.9978         25.6579       5122.1968         81.7153          0.0322          2.3387          2.3344
       2750.1342          8.5000          8.4388       1313.2742         18.2022         18.0382          9.3418          1.3406          0.9972          9.7708       5105.1294         81.7206          0.0327          2.3386          2.3343
       2750.2104          8.5000          8.4329       1306.5859         18.1112         17.9521          9.3435          1.3365          0.9971          2.9126       5097.8623         81.7224          0.0323          2.3361          2.3318
       2750.2866          8.5000          8.4230       1307.1204         18.0315         17.8802          9.3373          1.3334          0.9975          7.7794       5102.7422         81.7469          0.0309          2.3311          2.3269
       2750.3628          8.5000          8.4116       1314.1589         18.0174         17.8752          9.2815          1.3343          0.9986         23.4670       5118.3384         81.7662          0.0287          2.3240          2.3198
       2750.4390          8.5000          8.4020       1324.2922         18.0703         17.9355          9.1740          1.3394          0.9999         44.0396       5138.1914         81.7657          0.0262          2.3154          2.3112
       2750.5152          8.5000          8.3966       1332.5636         18.1542         18.0234          9.0653          1.3462          1.0008         60.1783       5152.7412         81.7324          0.0238          2.3064          2.3022
       2750.5914          8.5000          8.3950       1335.6726         18.2330         18.1034          9.0100          1.3510          1.0008         65.1821       5155.4922         81.6948          0.0217          2.2980          2.2939
       2750.6676          8.5000          8.3951       1334.6108         18.2952         18.1654          9.0219          1.3511          1.0002         60.7486       5148.6055         81.6818          0.0203          2.2912          2.2871
       2750.7438          8.5000          8.3949       1333.6572         18.3626         18.2329          9.0827          1.3464          0.9996         55.0303       5140.5498         81.6680          0.0197          2.2865          2.2823
       2750.8200          8.5000          8.3936       1336.6333         18.4546         18.3258          9.1579          1.3388          0.9998         55.9617       5139.1943         81.6674          0.0198          2.2837          2.2796
       2750.8962          8.5000          8.3908       1344.4402         18.5568         18.4301          9.2191          1.3315          1.0005         65.2029       5145.8350         81.6934          0.0202          2.2825          2.2783
       2750.9724          8.5000          8.3879       1353.8920         18.6398         18.5153          9.2625          1.3266          1.0016         76.1309       5153.5518         81.7177          0.0208          2.2822          2.2780
       2751.0486          8.5000          8.3862       1360.4769         18.6896         18.5665          9.2998          1.3253          1.0022         80.0983       5153.7593         81.7256          0.0214          2.2822          2.2781
       2751.1248          8.5000          8.3860       1362.1230         18.7202         18.5973          9.3525          1.3271          1.0020         72.3615       5142.1426         81.7561          0.0218          2.2822          2.2781
       2751.2010          8.5000          8.3871       1359.9271         18.7490         18.6251          9.4281          1.3311          1.0011         53.1807       5119.5791         81.8070          0.0221          2.2821          2.2780
       2751.2772          8.5000          8.3893       1356.6199         18.7848         18.6591          9.5104          1.3359          0.9998         26.9345       5091.0391         81.8222          0.0224          2.2820          2.2779
       2751.3534          8.5000          8.3924       1354.4502         18.8254         18.6972          9.5678          1.3403          0.9989         -0.0906       5063.1523         81.8138          0.0229          2.2823          2.2782
       2751.4296          8.5000          8.3961       1353.4290         18.8371         18.7059          9.5829          1.3433          0.9987        -23.7140       5040.1177         81.7693          0.0237          2.2836          2.2795
       2751.5058          8.5000          8.4000       1351.5562         18.7340         18.5997          9.5603          1.3447          0.9989        -42.3527       5023.2896         81.7311          0.0247          2.2866          2.2824
       2751.5820          8.5000          8.4028       1347.7714         18.4334         18.2973          9.5248          1.3450          0.9993        -54.7262       5013.5879         81.6888          0.0262          2.2916          2.2875
       2751.6582          8.5000          8.4030       1343.6411         17.9264         17.7910          9.5039          1.3453          0.9998        -58.6744       5012.7070         81.6451          0.0278          2.2988          2.2946
       2751.7344          8.5000          8.4011       1341.3954         17.3093         17.1766          9.5093          1.3468          1.0002        -54.1886       5020.1777         81.6032          0.0293          2.3073          2.3032
       2751.8106          8.5000          8.3987       1341.8728         16.7274         16.5979          9.5308          1.3494          1.0008        -44.8383       5032.1230         81.5921          0.0303          2.3163          2.3121
       2751.8868          8.5000          8.3971       1343.7349         16.3095         16.1823          9.5432          1.3520          1.0014        -36.7249       5042.4761         81.5863          0.0307          2.3244          2.3201
       2751.9630          8.5000          8.3968       1344.5995         16.1147         15.9882          9.5239          1.3528          1.0018        -34.6629       5046.7974         81.5862          0.0304          2.3308          2.3266
       2752.0392          8.5000          8.3972       1342.9594         16.1245         15.9978          9.4711          1.3504          1.0020        -39.5841       5044.6396         81.5918          0.0296          2.3354          2.3312
       2752.1154          8.5000          8.3972       1339.2637         16.2487         16.1216          9.4073          1.3450          1.0019        -47.4559       5040.2998         81.6290          0.0287          2.3388          2.3345
