~Version Information
 VERS.                2.00:   CWLS log ASCII Standard -VERSION 2.00
 WRAP.                  NO:   One line per frame      
~Well Information Block
#MNEM.UNIT                     Data                     Description
#----.----   ----------------------------------------   -------------------------------
 STRT.M                                     2542.3368 : Starting Depth
 STOP.M                                     2933.0142 : Ending Depth
 STEP.M                                        0.0762 : Level Spacing
 NULL.                                      -999.2500 : Absent Value
 COMP.       GEOTHERMIE DELFT                         : Company
 WELL.       GT-01                                    : Well
 FLD .       DELFT                                    : Field
 LOC .       LOC400#3                                 : Location
 PROV.                                                : Province
 CTRY.       NETHERLANDS                              : Country
 SRVC.       Baker Hughes                             : Service Company
 DATE.       10-SEP-2023                              : Log Date
 UWI .                                                : Unique Well ID
 LIC .                                                : License Number
~Curve Information Block
#MNEM    .UNIT        API Codes     Curve Description
#--------.--------   LG--CV-CL--M   ---------------------------------------------------
 DEPT    .M          99 995 99  1 : Depth
 BIT     .in         70 282  1  1 : Bit size
 CALX    .in         70 280 13  1 : Caliper from X-axis of XY caliper(s)
 CHT     .lbf        99 635 99  1 : Cable head tension
 CN      .pu         42 890  1  1 : Compensated neutron porosity
 CNC     .pu         42 995 99  1 : Borehole size corrected compensated neutron porosity
 GR      .gAPI       30 310  1  1 : Gamma ray
 PE      .b/e        45 358  1  1 : Photo electric cross-section
 SPD     .m/min      99 636 99  1 : Speed
 TEN     .lbf        99 635 99  1 : Differential tension
 TTEN    .lbf        99 635 99  1 : Total tension
 WTBH    .degC       99 995 99  1 : Temperature of borehole
 ZCOR    .g/cm3      45 356 99  1 : Density correction
 ZDEN    .g/cm3      45 350  1  1 : Formation bulk density
 ZDNC    .g/cm3      94 995 99  1 : Borehole size/mud weight corrected density
~Parameter Information Block
#MNEM.UNIT                     Value                    Description
#----.----   ----------------------------------------   -------------------------------
 HID1.       COMPENSATED Z-DENSILOG^S                 : Header Identifier
 HID2.       COMPENSATED NEUTRON LOG                  : Header Identifier
 HID3.       GAMMA RAY LOG                            : Header Identifier
 FILE.       207823                                   : File Number
 CMT1.       FIELD PRINT                              : Comment 1  
 CMT2.       1:1000 SCALE                             : Comment 2  
 CMT3.       1:200 SCALE                              : Comment 3  
 FL  .       LAT:    52 DEG 0 MIN 1.562 SEC N         : Field Location
 FL1 .       LONG: 4 DEG 22 MIN 10.9 SEC E            : Field Location 1
 OS1 .       DSL,BHP                                  : Other Services Line 1
 OS2 .       HDIL/XMAC                                : Other Services Line 2
 OS3 .       MREX                                     : Other Services Line 3
 OS4 .       GXPL/UXPL                                : Other Services Line 4
 PDAT.       MSL                                      : Permanent Datum
 EPD .M      7.46                                     : Elevation Of Perm. Datum
 LMF .       DF                                       : Log Measured From
 APD .M      7.46                                     : Above Permanent Datum
 DMF .       DF                                       : Drilling Measured From
 EKB .M      7.46                                     : Elevation Of Kelly Bushing
 EDF .M      7.46                                     : Elevation Of Derrick Floor
 EGL .M      -0.54                                    : Elevation Of Ground Level
 RUN .       3                                        : Run Number
 TRIP.       1                                        : Trip Number
 TDD .M      2931.0                                   : Total Depth - Driller
 TDL .M      2930.8                                   : Total Depth - Logger
 BLI .M      2920.5                                   : Bottom Log Interval
 TLI .M      2570.0                                   : Top Log Interval
 CSIZ.IN     9.625                                    : Casing Size
 CBDR.M      2572.0                                   : Casing Bottom - Driller
 CBLO.M      2570.0                                   : Casing Bottom - Logger
 BS  .IN     8.5                                      : Bit Size
 DFT .       OBM                                      : Drilling Fluid Type
 DFD .G/C3   1.12                                     : Drilling Fluid Density
 DFV .CP     21                                       : Drilling Fluid Viscosity
 DFL .ML     1.4                                      : Drilling Fluid Loss
 MSS .       ACTIVE PIT                               : Mud Sample Source
 MFSS.       N/A                                      : Mud Filtrate Sample Source
 MCSS.       N/A                                      : Mud Cake Sample Source
 TSC .       41 HRS 30 MINS                           : Time Since Circulation
 MRT .DEGC   83.1                                     : Maximum Recorded Temperature
 LUN .       Z006823                                  : Logging Unit Number
 LUL .       DEN HELDER                               : Logging Unit Location
 ENGI.       HEKEL/BUHNE/BUJOR                        : Engineer's Name
 WITN.       AUKE BARNHOORN                           : Witness' Name
 TSTR.       /ZDL/CN/GR/                              : Title Service Mnemonic
 TSTG.       NA                                       : Title Service Mnemonic
 STUS.       FINAL                                    : Status
 LCNM.       Baker Hughes                             : Logging Company Name
 LCC .       150                                      : Logging Company Code
 OPMD.       OH.WIRE                                  : Operation Mode
 PANA.       HEKEL/BUHNE/BUJOR                        : Processing Analyst
 PCON.       Baker Hughes                             : Processing Contractor
 APIN.                                                : API Serial Number
 LATI.DEG    0.0000                                   : Latitude
 LONG.DEG    0.0000                                   : Longitude
~Other information
GENERAL                                                                         
* LOG CORRELATED TO HDIL-XMAC RUN 1.1 FROM 09-SEP-2023.                         
* MAXIMUM DEVIATION OVER OPEN HOLE LOGGED INTERVAL IS 50.7 DEG AT 2700 M.       
* LAST CIRCULATION AT TD STOPPED AT  21 HRS ON 08-SEP-23 AFTER 3.25 HRS.        
* TOOLSTRING REACHED TD AT 14:30 HRS ON 10-SEP-2023.                            
TEMPERATURE:                                                                    
* MAXIMUM RECORDED TEMPERATURE FROM TTRM WAS 83.1 DEG C AT 2850 M.              
MUD DATA                                                                        
* MUD TYPE: OBM                                                                 
* MUD WEIGHT: 1.12 SG                                                           
* OIL WATER RATIO = 66.09 / 33.91                                               
* SOLIDS FRACTION = 10.9 %                                                      
* WATER % BY VOLUME = 29.5 %                                                    
* WATER PHASE CHLORIDES = 169491 MG/L                                           
* WHOLE MUD CHLORIDE CONTENT = 50000 MG/L                                       
* WHOLE MUD NACL EQUIVALENT = 79000 PPM                                         
GAMMA RAY / SPECTRALOG                                                          
* GAMMA RAY RUN DECENTRALISED.                                                  
* SPECTRALOG RECORDED BUT NOT PRESENTED FROM THIS RUN.                          
ZDL/CN                                                                          
* ZDL/CN DATA PRESENTED ON LIMESTONE SCALES.                                    
* CNC CURVE IS CALIPER AND SALINITY CORRECTED AND PRESENTED ON LIMESTONE MATRIX 
* NACL EQUIVALENT = 79000 PPM.                                                  
* ZDL/CN/GR RECORDED AT SAMPLE RATE OF 4 SPF.                                   
* DENSITY CURVE ZDNC IS BOREHOLE CORRECTED.                                     
* ZDL/CN LOGGED TOGETHER WITH MREX PASSES. PRESENTED LOG IS FROM                
  PP + LIGHT OIL PASS, RECORDED AT 1 M/MIN.                                     
#  Curve Data
~A    DEPT            BIT             CALX            CHT             CN              CNC             GR              PE              SPD             TEN             TTEN            WTBH            ZCOR            ZDEN            ZDNC        
# ...
       2822.1432          8.5000          8.3908       1426.9952         18.1130         17.9869         14.8369          1.3720          1.0015        129.8974       5370.8086         82.7389          0.0265          2.3090          2.3048
       2822.2194          8.5000          8.3915       1421.4019         18.1549         18.0282         13.9507          1.3674          1.0003         98.1806       5332.9014         82.7676          0.0283          2.3102          2.3060
       2822.2956          8.5000          8.3910       1415.5366         18.1888         18.0624         13.1575          1.3652          0.9993         66.9737       5297.2729         82.8004          0.0301          2.3119          2.3077
       2822.3718          8.5000          8.3906       1409.6035         18.1790         18.0529         12.5646          1.3660          0.9986         37.6756       5265.1519         82.8351          0.0315          2.3135          2.3093
       2822.4480          8.5000          8.3913       1403.8024         18.1061         17.9795         12.2205          1.3705          0.9978         12.5364       5238.5127         82.8432          0.0319          2.3133          2.3091
       2822.5242          8.5000          8.3933       1397.3801         18.0121         17.8841         12.0869          1.3785          0.9970         -5.2195       5220.2295         82.8371          0.0313          2.3104          2.3062
       2822.6004          8.5000          8.3956       1389.1682         17.9857         17.8560         12.0611          1.3882          0.9963        -12.1545       5213.3203         82.8436          0.0295          2.3044          2.3002
       2822.6766          8.5000          8.3970       1379.6582         18.1133         17.9822         12.0409          1.3973          0.9960         -7.0659       5218.5000         82.8623          0.0270          2.2960          2.2918
       2822.7528          8.5000          8.3974       1371.1270         18.4355         18.3037         11.9686          1.4039          0.9963          7.5233       5232.7524         82.8656          0.0244          2.2868          2.2826
       2822.8290          8.5000          8.3970       1366.3601         18.9189         18.7868         11.8353          1.4069          0.9971         25.9894       5250.0913         82.8927          0.0224          2.2784          2.2743
       2822.9052          8.5000          8.3964       1366.7722         19.4586         19.3266         11.6674          1.4061          0.9984         41.7078       5263.7822         82.9155          0.0212          2.2721          2.2680
       2822.9814          8.5000          8.3959       1371.9321         19.9293         19.7975         11.4974          1.4022          0.9994         49.0188       5268.3843         82.9325          0.0208          2.2679          2.2638
       2823.0576          8.5000          8.3958       1379.5573         20.2641         20.1323         11.3498          1.3959          0.9998         45.2242       5261.7339         82.9555          0.0210          2.2653          2.2612
       2823.1338          8.5000          8.3965       1386.8464         20.4652         20.3328         11.2575          1.3882          0.9997         32.1399       5246.3032         82.9436          0.0214          2.2636          2.2596
       2823.2100          8.5000          8.3985       1391.6775         20.5899         20.4558         11.2457          1.3807          0.9996         14.6931       5227.5059         82.9239          0.0217          2.2626          2.2585
       2823.2862          8.5000          8.4020       1394.6819         20.6986         20.5615         11.3308          1.3746          0.9999         -1.3530       5211.2139         82.9373          0.0220          2.2619          2.2578
       2823.3624          8.5000          8.4066       1398.5283         20.8015         20.6605         11.5038          1.3712          1.0006        -11.8236       5201.3330         82.9301          0.0223          2.2618          2.2577
       2823.4386          8.5000          8.4108       1405.3651         20.8704         20.7258         11.7352          1.3704          1.0013        -15.3385       5198.7832         82.9160          0.0227          2.2623          2.2582
       2823.5148          8.5000          8.4132       1414.1282         20.8889         20.7422         11.9545          1.3717          1.0017        -13.4118       5201.6431         82.9355          0.0231          2.2636          2.2595
       2823.5910          8.5000          8.4130       1421.7759         20.8657         20.7191         12.0824          1.3740          1.0016         -8.8360       5206.9150         82.9741          0.0236          2.2661          2.2620
       2823.6672          8.5000          8.4104       1425.5939         20.8260         20.6816         12.1114          1.3770          1.0012         -3.7337       5212.4585         82.9897          0.0244          2.2701          2.2660
       2823.7434          8.5000          8.4073       1425.3362         20.7876         20.6460         12.1905          1.3802          1.0008          1.3567       5217.7847         83.0207          0.0253          2.2758          2.2717
       2823.8196          8.5000          8.4057       1422.6654         20.7131         20.5728         12.5468          1.3834          1.0005          6.0771       5222.5688         83.0386          0.0262          2.2827          2.2786
       2823.8958          8.5000          8.4067       1420.1180         20.4942         20.3530         13.3400          1.3854          1.0004          9.4705       5225.8721         83.0290          0.0268          2.2900          2.2858
       2823.9720          8.5000          8.4100       1419.2108         20.0422         19.8984         14.5468          1.3848          1.0002         10.1821       5226.4014         83.0191          0.0266          2.2965          2.2923
       2824.0482          8.5000          8.4145       1419.4258         19.3860         19.2391         15.9871          1.3808          0.9998          7.1924       5223.2930         82.9698          0.0257          2.3015          2.2973
       2824.1244          8.5000          8.4186       1418.4187         18.6641         18.5150         17.3857          1.3738          0.9994          0.3978       5216.6484         82.8846          0.0242          2.3050          2.3008
       2824.2006          8.5000          8.4207       1413.7351         18.0424         17.8930         18.4972          1.3653          0.9991         -9.6692       5207.1992         82.8220          0.0226          2.3081          2.3039
       2824.2768          8.5000          8.4193       1404.0613         17.6216         17.4744         19.2059          1.3576          0.9990        -22.7010       5195.4292         82.7730          0.0215          2.3120          2.3078
       2824.3530          8.5000          8.4137       1390.6077         17.4090         17.2665         19.5520          1.3523          0.9990        -36.9757       5183.1807         82.7279          0.0214          2.3181          2.3139
       2824.4292          8.5000          8.4052       1376.8806         17.3349         17.1991         19.6668          1.3501          0.9988        -49.0831       5173.8267         82.7291          0.0225          2.3275          2.3233
       2824.5054          8.5000          8.3965       1366.5975         17.3054         17.1763         19.7184          1.3509          0.9984        -56.2911       5169.8662         82.7372          0.0248          2.3404          2.3362
       2824.5816          8.5000          8.3903       1361.3711         17.2786         17.1542         19.8954          1.3541          0.9981        -58.1697       5171.3984         82.7384          0.0277          2.3561          2.3518
       2824.6578          8.5000          8.3877       1361.0029         17.3110         17.1886         20.4735          1.3607          0.9978        -56.2515       5176.6064         82.7589          0.0307          2.3730          2.3687
