~Version Information
 VERS.                2.00:   CWLS log ASCII Standard -VERSION 2.00
 WRAP.                  NO:   One line per frame      
~Well Information Block
#MNEM.UNIT                     Data                     Description
#----.----   ----------------------------------------   -------------------------------
 STRT.M                                     2542.3368 : Starting Depth
 STOP.M                                     2933.0142 : Ending Depth
 STEP.M                                        0.0762 : Level Spacing
 NULL.                                      -999.2500 : Absent Value
 COMP.       GEOTHERMIE DELFT                         : Company
 WELL.       GT-01                                    : Well
 FLD .       DELFT                                    : Field
 LOC .       LOC400#3                                 : Location
 PROV.                                                : Province
 CTRY.       NETHERLANDS                              : Country
 SRVC.       Baker Hughes                             : Service Company
 DATE.       10-SEP-2023                              : Log Date
 UWI .                                                : Unique Well ID
 LIC .                                                : License Number
~Curve Information Block
#MNEM    .UNIT        API Codes     Curve Description
#--------.--------   LG--CV-CL--M   ---------------------------------------------------
 DEPT    .M          99 995 99  1 : Depth
 BIT     .in         70 282  1  1 : Bit size
 CALX    .in         70 280 13  1 : Caliper from X-axis of XY caliper(s)
 CHT     .lbf        99 635 99  1 : Cable head tension
 CN      .pu         42 890  1  1 : Compensated neutron porosity
 CNC     .pu         42 995 99  1 : Borehole size corrected compensated neutron porosity
 GR      .gAPI       30 310  1  1 : Gamma ray
 PE      .b/e        45 358  1  1 : Photo electric cross-section
 SPD     .m/min      99 636 99  1 : Speed
 TEN     .lbf        99 635 99  1 : Differential tension
 TTEN    .lbf        99 635 99  1 : Total tension
 WTBH    .degC       99 995 99  1 : Temperature of borehole
 ZCOR    .g/cm3      45 356 99  1 : Density correction
 ZDEN    .g/cm3      45 350  1  1 : Formation bulk density
 ZDNC    .g/cm3      94 995 99  1 : Borehole size/mud weight corrected density
~Parameter Information Block
#MNEM.UNIT                     Value                    Description
#----.----   ----------------------------------------   -------------------------------
 HID1.       COMPENSATED Z-DENSILOG^S                 : Header Identifier
 HID2.       COMPENSATED NEUTRON LOG                  : Header Identifier
 HID3.       GAMMA RAY LOG                            : Header Identifier
 FILE.       207823                                   : File Number
 CMT1.       FIELD PRINT                              : Comment 1  
 CMT2.       1:1000 SCALE                             : Comment 2  
 CMT3.       1:200 SCALE                              : Comment 3  
 FL  .       LAT:    52 DEG 0 MIN 1.562 SEC N         : Field Location
 FL1 .       LONG: 4 DEG 22 MIN 10.9 SEC E            : Field Location 1
 OS1 .       DSL,BHP                                  : Other Services Line 1
 OS2 .       HDIL/XMAC                                : Other Services Line 2
 OS3 .       MREX                                     : Other Services Line 3
 OS4 .       GXPL/UXPL                                : Other Services Line 4
 PDAT.       MSL                                      : Permanent Datum
 EPD .M      7.46                                     : Elevation Of Perm. Datum
 LMF .       DF                                       : Log Measured From
 APD .M      7.46                                     : Above Permanent Datum
 DMF .       DF                                       : Drilling Measured From
 EKB .M      7.46                                     : Elevation Of Kelly Bushing
 EDF .M      7.46                                     : Elevation Of Derrick Floor
 EGL .M      -0.54                                    : Elevation Of Ground Level
 RUN .       3                                        : Run Number
 TRIP.       1                                        : Trip Number
 TDD .M      2931.0                                   : Total Depth - Driller
 TDL .M      2930.8                                   : Total Depth - Logger
 BLI .M      2920.5                                   : Bottom Log Interval
 TLI .M      2570.0                                   : Top Log Interval
 CSIZ.IN     9.625                                    : Casing Size
 CBDR.M      2572.0                                   : Casing Bottom - Driller
 CBLO.M      2570.0                                   : Casing Bottom - Logger
 BS  .IN     8.5                                      : Bit Size
 DFT .       OBM                                      : Drilling Fluid Type
 DFD .G/C3   1.12                                     : Drilling Fluid Density
 DFV .CP     21                                       : Drilling Fluid Viscosity
 DFL .ML     1.4                                      : Drilling Fluid Loss
 MSS .       ACTIVE PIT                               : Mud Sample Source
 MFSS.       N/A                                      : Mud Filtrate Sample Source
 MCSS.       N/A                                      : Mud Cake Sample Source
 TSC .       41 HRS 30 MINS                           : Time Since Circulation
 MRT .DEGC   83.1                                     : Maximum Recorded Temperature
 LUN .       Z006823                                  : Logging Unit Number
 LUL .       DEN HELDER                               : Logging Unit Location
 ENGI.       HEKEL/BUHNE/BUJOR                        : Engineer's Name
 WITN.       AUKE BARNHOORN                           : Witness' Name
 TSTR.       /ZDL/CN/GR/                              : Title Service Mnemonic
 TSTG.       NA                                       : Title Service Mnemonic
 STUS.       FINAL                                    : Status
 LCNM.       Baker Hughes                             : Logging Company Name
 LCC .       150                                      : Logging Company Code
 OPMD.       OH.WIRE                                  : Operation Mode
 PANA.       HEKEL/BUHNE/BUJOR                        : Processing Analyst
 PCON.       Baker Hughes                             : Processing Contractor
 APIN.                                                : API Serial Number
 LATI.DEG    0.0000                                   : Latitude
 LONG.DEG    0.0000                                   : Longitude
~Other information
GENERAL                                                                         
* LOG CORRELATED TO HDIL-XMAC RUN 1.1 FROM 09-SEP-2023.                         
* MAXIMUM DEVIATION OVER OPEN HOLE LOGGED INTERVAL IS 50.7 DEG AT 2700 M.       
* LAST CIRCULATION AT TD STOPPED AT  21 HRS ON 08-SEP-23 AFTER 3.25 HRS.        
* TOOLSTRING REACHED TD AT 14:30 HRS ON 10-SEP-2023.                            
TEMPERATURE:                                                                    
* MAXIMUM RECORDED TEMPERATURE FROM TTRM WAS 83.1 DEG C AT 2850 M.              
MUD DATA                                                                        
* MUD TYPE: OBM                                                                 
* MUD WEIGHT: 1.12 SG                                                           
* OIL WATER RATIO = 66.09 / 33.91                                               
* SOLIDS FRACTION = 10.9 %                                                      
* WATER % BY VOLUME = 29.5 %                                                    
* WATER PHASE CHLORIDES = 169491 MG/L                                           
* WHOLE MUD CHLORIDE CONTENT = 50000 MG/L                                       
* WHOLE MUD NACL EQUIVALENT = 79000 PPM                                         
GAMMA RAY / SPECTRALOG                                                          
* GAMMA RAY RUN DECENTRALISED.                                                  
* SPECTRALOG RECORDED BUT NOT PRESENTED FROM THIS RUN.                          
ZDL/CN                                                                          
* ZDL/CN DATA PRESENTED ON LIMESTONE SCALES.                                    
* CNC CURVE IS CALIPER AND SALINITY CORRECTED AND PRESENTED ON LIMESTONE MATRIX 
* NACL EQUIVALENT = 79000 PPM.                                                  
* ZDL/CN/GR RECORDED AT SAMPLE RATE OF 4 SPF.                                   
* DENSITY CURVE ZDNC IS BOREHOLE CORRECTED.                                     
* ZDL/CN LOGGED TOGETHER WITH MREX PASSES. PRESENTED LOG IS FROM                
  PP + LIGHT OIL PASS, RECORDED AT 1 M/MIN.                                     
#  Curve Data
~A    DEPT            BIT             CALX            CHT             CN              CNC             GR              PE              SPD             TEN             TTEN            WTBH            ZCOR            ZDEN            ZDNC        
# ...
       2920.5936          8.5000          9.6246       1302.5659       -999.2500       -999.2500       -999.2500          2.0181          1.0000       -133.2371       5344.2847       -999.2500          0.1477          2.5873          2.5842
       2920.6698          8.5000          9.7088       1299.9189       -999.2500       -999.2500       -999.2500          2.0355          0.9998       -143.4182       5341.2080       -999.2500          0.1483          2.5879          2.5850
       2920.7460          8.5000          9.7766       1294.8564       -999.2500       -999.2500       -999.2500          2.0561          0.9997       -152.8273       5339.5044       -999.2500          0.1480          2.5880          2.5852
       2920.8222          8.5000          9.8186       1288.7133       -999.2500       -999.2500       -999.2500          2.0732          0.9995       -164.1676       5336.5200       -999.2500          0.1468          2.5878          2.5851
       2920.8984          8.5000          9.8287       1284.4250       -999.2500       -999.2500       -999.2500          2.0785          0.9993       -177.3878       5332.4097       -999.2500          0.1448          2.5875          2.5847
       2920.9746          8.5000          9.8047       1283.9156       -999.2500       -999.2500       -999.2500          2.0674          0.9992       -189.7719       5329.9238       -999.2500          0.1419          2.5871          2.5843
       2921.0508          8.5000          9.7456       1287.9141       -999.2500       -999.2500       -999.2500          2.0419          0.9992       -196.8326       5333.4277       -999.2500          0.1383          2.5868          2.5840
       2921.1270          8.5000          9.6547       1296.0833       -999.2500       -999.2500       -999.2500          2.0102          0.9995       -194.2199       5346.9336       -999.2500          0.1343          2.5869          2.5840
       2921.2032          8.5000          9.5427       1306.8140       -999.2500       -999.2500       -999.2500          1.9814          1.0001       -179.5424       5372.2959       -999.2500          0.1301          2.5873          2.5842
       2921.2794          8.5000          9.4269       1318.3450       -999.2500       -999.2500       -999.2500          1.9618          1.0008       -153.7466       5407.9463       -999.2500          0.1261          2.5875          2.5843
       2921.3556          8.5000          9.3237       1330.1373       -999.2500       -999.2500       -999.2500          1.9522          1.0013       -122.2021       5448.0205       -999.2500          0.1227          2.5875          2.5841
       2921.4318          8.5000          9.2441       1340.7861       -999.2500       -999.2500       -999.2500          1.9499          1.0014        -93.5468       5483.7036       -999.2500          0.1205          2.5871          2.5836
       2921.5080          8.5000          9.1913       1348.2393       -999.2500       -999.2500       -999.2500          1.9517          1.0009        -75.7997       5507.2051       -999.2500          0.1201          2.5866          2.5832
       2921.5842          8.5000          9.1619       1351.4325       -999.2500       -999.2500       -999.2500          1.9558          1.0000        -71.4848       5516.5366       -999.2500          0.1217          2.5868          2.5833
       2921.6604          8.5000          9.1490       1351.7947       -999.2500       -999.2500       -999.2500          1.9613          0.9993        -74.8860       5517.9248       -999.2500          0.1254          2.5880          2.5844
       2921.7366          8.5000          9.1444       1353.7970       -999.2500       -999.2500       -999.2500          1.9674          0.9989        -74.0606       5523.3887       -999.2500          0.1307          2.5903          2.5868
       2921.8128          8.5000          9.1413       1363.3805       -999.2500       -999.2500       -999.2500          1.9727          0.9989        -57.4158       5544.0049       -999.2500          0.1369          2.5935          2.5900
       2921.8890          8.5000          9.1378       1383.4513       -999.2500       -999.2500       -999.2500          1.9752          0.9993        -21.2470       5582.5757       -999.2500          0.1430          2.5970          2.5936
       2921.9652          8.5000          9.1350       1411.2341       -999.2500       -999.2500       -999.2500          1.9733          0.9997         28.0608       5631.8921       -999.2500          0.1484          2.6001          2.5967
       2922.0414          8.5000          9.1337       1439.6830       -999.2500       -999.2500       -999.2500          1.9669          1.0002         76.7777       5677.9248       -999.2500          0.1524          2.6025          2.5991
       2922.1176          8.5000          9.1337       1460.8750       -999.2500       -999.2500       -999.2500          1.9567          1.0005        110.9034       5707.0840       -999.2500          0.1550          2.6041          2.6007
       2922.1938          8.5000          9.1343       1469.7363       -999.2500       -999.2500       -999.2500          1.9440          1.0007        123.2591       5713.1411       -999.2500          0.1565          2.6052          2.6018
       2922.2700          8.5000          9.1347       1466.4468       -999.2500       -999.2500       -999.2500          1.9302          1.0008        116.3000       5699.6479       -999.2500          0.1573          2.6062          2.6028
       2922.3462          8.5000          9.1342       1455.2863       -999.2500       -999.2500       -999.2500       -999.2500          1.0009         98.7171       5676.1406       -999.2500          0.1578          2.6073          2.6039
       2922.4224          8.5000          9.1328       1441.6401       -999.2500       -999.2500       -999.2500       -999.2500          1.0009         80.4066       5652.8691       -999.2500       -999.2500       -999.2500       -999.2500
       2922.4986          8.5000          9.1318       1429.9119       -999.2500       -999.2500       -999.2500       -999.2500          1.0006         66.8824       5635.2754       -999.2500       -999.2500       -999.2500       -999.2500
       2922.5748          8.5000          9.1321       1421.0848       -999.2500       -999.2500       -999.2500       -999.2500          1.0000         57.4270       5622.4268       -999.2500       -999.2500       -999.2500       -999.2500
       2922.6510          8.5000          9.1340       1414.1591       -999.2500       -999.2500       -999.2500       -999.2500          0.9992         47.9445       5610.1074       -999.2500       -999.2500       -999.2500       -999.2500
       2922.7272          8.5000          9.1364       1407.9303       -999.2500       -999.2500       -999.2500       -999.2500          0.9985         36.3265       5596.2285       -999.2500       -999.2500       -999.2500       -999.2500
       2922.8034          8.5000          9.1391       1402.2289       -999.2500       -999.2500       -999.2500       -999.2500          0.9982         24.8121       5583.0317       -999.2500       -999.2500       -999.2500       -999.2500
       2922.8796          8.5000       -999.2500       1398.7494       -999.2500       -999.2500       -999.2500       -999.2500          0.9986         19.3989       5576.3174       -999.2500       -999.2500       -999.2500       -999.2500
       2922.9558          8.5000       -999.2500       1400.6055       -999.2500       -999.2500       -999.2500       -999.2500          0.9994         25.6741       5581.2002       -999.2500       -999.2500       -999.2500       -999.2500
       2923.0320          8.5000       -999.2500       1409.5156       -999.2500       -999.2500       -999.2500       -999.2500          1.0003         43.6971       5597.1440       -999.2500       -999.2500       -999.2500       -999.2500
       2923.1082          8.5000       -999.2500       1423.6036       -999.2500       -999.2500       -999.2500       -999.2500          1.0010         66.5777       5616.8418       -999.2500       -999.2500       -999.2500       -999.2500
