~Version Information
 VERS.                2.00:   CWLS log ASCII Standard -VERSION 2.00
 WRAP.                  NO:   One line per frame      
~Well Information Block
#MNEM.UNIT                     Data                     Description
#----.----   ----------------------------------------   -------------------------------
 STRT.M                                     2542.3368 : Starting Depth
 STOP.M                                     2933.0142 : Ending Depth
 STEP.M                                        0.0762 : Level Spacing
 NULL.                                      -999.2500 : Absent Value
 COMP.       GEOTHERMIE DELFT                         : Company
 WELL.       GT-01                                    : Well
 FLD .       DELFT                                    : Field
 LOC .       LOC400#3                                 : Location
 PROV.                                                : Province
 CTRY.       NETHERLANDS                              : Country
 SRVC.       Baker Hughes                             : Service Company
 DATE.       10-SEP-2023                              : Log Date
 UWI .                                                : Unique Well ID
 LIC .                                                : License Number
~Curve Information Block
#MNEM    .UNIT        API Codes     Curve Description
#--------.--------   LG--CV-CL--M   ---------------------------------------------------
 DEPT    .M          99 995 99  1 : Depth
 BIT     .in         70 282  1  1 : Bit size
 CALX    .in         70 280 13  1 : Caliper from X-axis of XY caliper(s)
 CHT     .lbf        99 635 99  1 : Cable head tension
 CN      .pu         42 890  1  1 : Compensated neutron porosity
 CNC     .pu         42 995 99  1 : Borehole size corrected compensated neutron porosity
 GR      .gAPI       30 310  1  1 : Gamma ray
 PE      .b/e        45 358  1  1 : Photo electric cross-section
 SPD     .m/min      99 636 99  1 : Speed
 TEN     .lbf        99 635 99  1 : Differential tension
 TTEN    .lbf        99 635 99  1 : Total tension
 WTBH    .degC       99 995 99  1 : Temperature of borehole
 ZCOR    .g/cm3      45 356 99  1 : Density correction
 ZDEN    .g/cm3      45 350  1  1 : Formation bulk density
 ZDNC    .g/cm3      94 995 99  1 : Borehole size/mud weight corrected density
~Parameter Information Block
#MNEM.UNIT                     Value                    Description
#----.----   ----------------------------------------   -------------------------------
 HID1.       COMPENSATED Z-DENSILOG^S                 : Header Identifier
 HID2.       COMPENSATED NEUTRON LOG                  : Header Identifier
 HID3.       GAMMA RAY LOG                            : Header Identifier
 FILE.       207823                                   : File Number
 CMT1.       FIELD PRINT                              : Comment 1  
 CMT2.       1:1000 SCALE                             : Comment 2  
 CMT3.       1:200 SCALE                              : Comment 3  
 FL  .       LAT:    52 DEG 0 MIN 1.562 SEC N         : Field Location
 FL1 .       LONG: 4 DEG 22 MIN 10.9 SEC E            : Field Location 1
 OS1 .       DSL,BHP                                  : Other Services Line 1
 OS2 .       HDIL/XMAC                                : Other Services Line 2
 OS3 .       MREX                                     : Other Services Line 3
 OS4 .       GXPL/UXPL                                : Other Services Line 4
 PDAT.       MSL                                      : Permanent Datum
 EPD .M      7.46                                     : Elevation Of Perm. Datum
 LMF .       DF                                       : Log Measured From
 APD .M      7.46                                     : Above Permanent Datum
 DMF .       DF                                       : Drilling Measured From
 EKB .M      7.46                                     : Elevation Of Kelly Bushing
 EDF .M      7.46                                     : Elevation Of Derrick Floor
 EGL .M      -0.54                                    : Elevation Of Ground Level
 RUN .       3                                        : Run Number
 TRIP.       1                                        : Trip Number
 TDD .M      2931.0                                   : Total Depth - Driller
 TDL .M      2930.8                                   : Total Depth - Logger
 BLI .M      2920.5                                   : Bottom Log Interval
 TLI .M      2570.0                                   : Top Log Interval
 CSIZ.IN     9.625                                    : Casing Size
 CBDR.M      2572.0                                   : Casing Bottom - Driller
 CBLO.M      2570.0                                   : Casing Bottom - Logger
 BS  .IN     8.5                                      : Bit Size
 DFT .       OBM                                      : Drilling Fluid Type
 DFD .G/C3   1.12                                     : Drilling Fluid Density
 DFV .CP     21                                       : Drilling Fluid Viscosity
 DFL .ML     1.4                                      : Drilling Fluid Loss
 MSS .       ACTIVE PIT                               : Mud Sample Source
 MFSS.       N/A                                      : Mud Filtrate Sample Source
 MCSS.       N/A                                      : Mud Cake Sample Source
 TSC .       41 HRS 30 MINS                           : Time Since Circulation
 MRT .DEGC   83.1                                     : Maximum Recorded Temperature
 LUN .       Z006823                                  : Logging Unit Number
 LUL .       DEN HELDER                               : Logging Unit Location
 ENGI.       HEKEL/BUHNE/BUJOR                        : Engineer's Name
 WITN.       AUKE BARNHOORN                           : Witness' Name
 TSTR.       /ZDL/CN/GR/                              : Title Service Mnemonic
 TSTG.       NA                                       : Title Service Mnemonic
 STUS.       FINAL                                    : Status
 LCNM.       Baker Hughes                             : Logging Company Name
 LCC .       150                                      : Logging Company Code
 OPMD.       OH.WIRE                                  : Operation Mode
 PANA.       HEKEL/BUHNE/BUJOR                        : Processing Analyst
 PCON.       Baker Hughes                             : Processing Contractor
 APIN.                                                : API Serial Number
 LATI.DEG    0.0000                                   : Latitude
 LONG.DEG    0.0000                                   : Longitude
~Other information
GENERAL                                                                         
* LOG CORRELATED TO HDIL-XMAC RUN 1.1 FROM 09-SEP-2023.                         
* MAXIMUM DEVIATION OVER OPEN HOLE LOGGED INTERVAL IS 50.7 DEG AT 2700 M.       
* LAST CIRCULATION AT TD STOPPED AT  21 HRS ON 08-SEP-23 AFTER 3.25 HRS.        
* TOOLSTRING REACHED TD AT 14:30 HRS ON 10-SEP-2023.                            
TEMPERATURE:                                                                    
* MAXIMUM RECORDED TEMPERATURE FROM TTRM WAS 83.1 DEG C AT 2850 M.              
MUD DATA                                                                        
* MUD TYPE: OBM                                                                 
* MUD WEIGHT: 1.12 SG                                                           
* OIL WATER RATIO = 66.09 / 33.91                                               
* SOLIDS FRACTION = 10.9 %                                                      
* WATER % BY VOLUME = 29.5 %                                                    
* WATER PHASE CHLORIDES = 169491 MG/L                                           
* WHOLE MUD CHLORIDE CONTENT = 50000 MG/L                                       
* WHOLE MUD NACL EQUIVALENT = 79000 PPM                                         
GAMMA RAY / SPECTRALOG                                                          
* GAMMA RAY RUN DECENTRALISED.                                                  
* SPECTRALOG RECORDED BUT NOT PRESENTED FROM THIS RUN.                          
ZDL/CN                                                                          
* ZDL/CN DATA PRESENTED ON LIMESTONE SCALES.                                    
* CNC CURVE IS CALIPER AND SALINITY CORRECTED AND PRESENTED ON LIMESTONE MATRIX 
* NACL EQUIVALENT = 79000 PPM.                                                  
* ZDL/CN/GR RECORDED AT SAMPLE RATE OF 4 SPF.                                   
* DENSITY CURVE ZDNC IS BOREHOLE CORRECTED.                                     
* ZDL/CN LOGGED TOGETHER WITH MREX PASSES. PRESENTED LOG IS FROM                
  PP + LIGHT OIL PASS, RECORDED AT 1 M/MIN.                                     
#  Curve Data
~A    DEPT            BIT             CALX            CHT             CN              CNC             GR              PE              SPD             TEN             TTEN            WTBH            ZCOR            ZDEN            ZDNC        
# ...
       2871.3684          8.5000          8.6506       1415.0652         15.9194         15.6154        116.9012          1.9976          1.0005        -32.5010       5370.8755         83.0147          0.0638          2.5871          2.5832
       2871.4446          8.5000          8.6357       1418.4248         15.8539         15.5608        116.7852          1.9736          1.0001        -29.2594       5375.2764         83.0134          0.0570          2.5869          2.5829
       2871.5208          8.5000          8.6184       1417.2015         15.8414         15.5603        116.5013          1.9542          0.9997        -31.6199       5374.0830         82.9996          0.0502          2.5864          2.5825
       2871.5970          8.5000          8.5999       1413.1448         15.8758         15.6071        115.8397          1.9414          0.9994        -36.7558       5370.3486         82.9741          0.0442          2.5868          2.5829
       2871.6732          8.5000          8.5813       1409.8066         15.9365         15.6801        114.7572          1.9356          0.9994        -40.0405       5368.7500         82.9783          0.0396          2.5890          2.5850
       2871.7494          8.5000          8.5633       1410.0168         16.0015         15.7572        113.3507          1.9352          0.9996        -38.0257       5372.5732         83.0250          0.0365          2.5932          2.5892
       2871.8256          8.5000          8.5474       1413.9417         16.0435         15.8100        111.8094          1.9373          0.9999        -32.6571       5379.6772         83.0452          0.0345          2.5989          2.5949
       2871.9018          8.5000          8.5352       1420.2297         16.0390         15.8142        110.3117          1.9385          1.0001        -28.6239       5385.3232         83.0507          0.0332          2.6051          2.6012
       2871.9780          8.5000          8.5289       1426.4324         15.9874         15.7673        108.9560          1.9371          1.0003        -29.4579       5386.1240         83.0410          0.0321          2.6108          2.6069
       2872.0542          8.5000          8.5296       1430.1541         15.9106         15.6905        107.7182          1.9335          1.0003        -35.3086       5382.1826         83.0301          0.0307          2.6154          2.6115
       2872.1304          8.5000          8.5359       1430.7003         15.8332         15.6093        106.5467          1.9292          1.0002        -43.7853       5376.0811         83.0187          0.0292          2.6188          2.6149
       2872.2066          8.5000          8.5443       1429.4226         15.7734         15.5441        105.3867          1.9261          0.9997        -50.3790       5372.3052         83.0338          0.0276          2.6214          2.6176
       2872.2828          8.5000          8.5511       1428.6033         15.7319         15.4982        104.1839          1.9266          0.9984        -51.1497       5374.5234         83.0482          0.0261          2.6241          2.6202
       2872.3590          8.5000          8.5538       1429.8667         15.7027         15.4674        102.8598          1.9347          0.9960        -46.0726       5382.3682         83.0608          0.0250          2.6273          2.6234
       2872.4352          8.5000          8.5513       1432.3392         15.6760         15.4425        101.3978          1.9547          0.9925        -38.5932       5392.1172         83.0840          0.0243          2.6314          2.6276
       2872.5114          8.5000          8.5449       1433.6372         15.6473         15.4185         99.8751          1.9898          0.9886        -31.5116       5400.9033         83.1030          0.0240          2.6365          2.6327
       2872.5876          8.5000          8.5372       1432.5350         15.6229         15.3997         98.4919          2.0381          0.9850        -25.7486       5407.8735         83.1164          0.0241          2.6422          2.6384
       2872.6638          8.5000          8.5301       1429.0295         15.6209         15.4026         97.4750          2.0909          0.9823        -20.6969       5413.7295         83.1367          0.0243          2.6479          2.6441
       2872.7400          8.5000          8.5247       1423.5419         15.6474         15.4326         96.9888          2.1341          0.9807        -15.2764       5419.6270         83.1360          0.0245          2.6527          2.6489
       2872.8162          8.5000          8.5206       1417.6575         15.6866         15.4743         97.0139          2.1546          0.9798         -8.1757       5426.9287         83.1012          0.0246          2.6557          2.6520
       2872.8924          8.5000          8.5171       1413.5627         15.7044         15.4945         97.3492          2.1485          0.9794          0.5437       5435.5938         83.0742          0.0245          2.6565          2.6527
       2872.9686          8.5000          8.5142       1412.1318         15.6690         15.4613         97.7510          2.1226          0.9790          9.9533       5444.7212         83.0568          0.0244          2.6550          2.6512
       2873.0448          8.5000          8.5125       1412.8669         15.5811         15.3752         98.1031          2.0905          0.9786         18.5323       5452.8364         83.0108          0.0247          2.6518          2.6480
       2873.1210          8.5000          8.5127       1414.4535         15.4793         15.2739         98.5149          2.0643          0.9783         24.6330       5458.3477         83.0182          0.0255          2.6477          2.6440
       2873.1972          8.5000          8.5149       1414.7742         15.4268         15.2203         99.2021          2.0500          0.9783         24.7688       5457.8916         83.0128          0.0274          2.6439          2.6402
       2873.2734          8.5000          8.5179       1411.7935         15.5038         15.2947        100.2865          2.0478          0.9784         16.1656       5448.9844         83.0079          0.0304          2.6414          2.6376
       2873.3496          8.5000          8.5203       1405.2394         15.7735         15.5609        101.7081          2.0538          0.9788         -0.5978       5432.6260         83.0436          0.0345          2.6407          2.6369
       2873.4258          8.5000          8.5210       1397.7114         16.2745         16.0581        103.3069          2.0629          0.9792        -20.5419       5414.1187         83.0779          0.0395          2.6422          2.6384
       2873.5020          8.5000          8.5206       1393.5408         17.0585         16.8375        104.9654          2.0693          0.9796        -36.9555       5400.1914         83.1215          0.0449          2.6454          2.6416
       2873.5782          8.5000          8.5194       1395.7354         18.2040         17.9774        106.6231          2.0670          0.9800        -45.6087       5394.7471         83.1584          0.0501          2.6494          2.6457
       2873.6544          8.5000          8.5167       1403.8369         19.7749         19.5433        108.2613          2.0509          0.9802        -47.3097       5396.4834         83.1728          0.0543          2.6528          2.6491
       2873.7306          8.5000          8.5110       1413.8953         21.7704         21.5374        109.8623          2.0196          0.9805        -46.1981       5400.8838         83.1638          0.0568          2.6542          2.6504
       2873.8068          8.5000          8.5020       1420.6050         24.0822         23.8549        111.3640          1.9772          0.9809        -46.1312       5403.9829         83.1584          0.0574          2.6526          2.6489
       2873.8830          8.5000          8.4918       1421.1453         26.4922         26.2784        112.6653          1.9314          0.9814        -46.9361       5406.0288         83.1700          0.0560          2.6485          2.6447
