~Version Information
 VERS.                2.00:   CWLS log ASCII Standard -VERSION 2.00
 WRAP.                  NO:   One line per frame      
~Well Information Block
#MNEM.UNIT                     Data                     Description
#----.----   ----------------------------------------   -------------------------------
 STRT.M                                     2542.3368 : Starting Depth
 STOP.M                                     2933.0142 : Ending Depth
 STEP.M                                        0.0762 : Level Spacing
 NULL.                                      -999.2500 : Absent Value
 COMP.       GEOTHERMIE DELFT                         : Company
 WELL.       GT-01                                    : Well
 FLD .       DELFT                                    : Field
 LOC .       LOC400#3                                 : Location
 PROV.                                                : Province
 CTRY.       NETHERLANDS                              : Country
 SRVC.       Baker Hughes                             : Service Company
 DATE.       10-SEP-2023                              : Log Date
 UWI .                                                : Unique Well ID
 LIC .                                                : License Number
~Curve Information Block
#MNEM    .UNIT        API Codes     Curve Description
#--------.--------   LG--CV-CL--M   ---------------------------------------------------
 DEPT    .M          99 995 99  1 : Depth
 BIT     .in         70 282  1  1 : Bit size
 CALX    .in         70 280 13  1 : Caliper from X-axis of XY caliper(s)
 CHT     .lbf        99 635 99  1 : Cable head tension
 CN      .pu         42 890  1  1 : Compensated neutron porosity
 CNC     .pu         42 995 99  1 : Borehole size corrected compensated neutron porosity
 GR      .gAPI       30 310  1  1 : Gamma ray
 PE      .b/e        45 358  1  1 : Photo electric cross-section
 SPD     .m/min      99 636 99  1 : Speed
 TEN     .lbf        99 635 99  1 : Differential tension
 TTEN    .lbf        99 635 99  1 : Total tension
 WTBH    .degC       99 995 99  1 : Temperature of borehole
 ZCOR    .g/cm3      45 356 99  1 : Density correction
 ZDEN    .g/cm3      45 350  1  1 : Formation bulk density
 ZDNC    .g/cm3      94 995 99  1 : Borehole size/mud weight corrected density
~Parameter Information Block
#MNEM.UNIT                     Value                    Description
#----.----   ----------------------------------------   -------------------------------
 HID1.       COMPENSATED Z-DENSILOG^S                 : Header Identifier
 HID2.       COMPENSATED NEUTRON LOG                  : Header Identifier
 HID3.       GAMMA RAY LOG                            : Header Identifier
 FILE.       207823                                   : File Number
 CMT1.       FIELD PRINT                              : Comment 1  
 CMT2.       1:1000 SCALE                             : Comment 2  
 CMT3.       1:200 SCALE                              : Comment 3  
 FL  .       LAT:    52 DEG 0 MIN 1.562 SEC N         : Field Location
 FL1 .       LONG: 4 DEG 22 MIN 10.9 SEC E            : Field Location 1
 OS1 .       DSL,BHP                                  : Other Services Line 1
 OS2 .       HDIL/XMAC                                : Other Services Line 2
 OS3 .       MREX                                     : Other Services Line 3
 OS4 .       GXPL/UXPL                                : Other Services Line 4
 PDAT.       MSL                                      : Permanent Datum
 EPD .M      7.46                                     : Elevation Of Perm. Datum
 LMF .       DF                                       : Log Measured From
 APD .M      7.46                                     : Above Permanent Datum
 DMF .       DF                                       : Drilling Measured From
 EKB .M      7.46                                     : Elevation Of Kelly Bushing
 EDF .M      7.46                                     : Elevation Of Derrick Floor
 EGL .M      -0.54                                    : Elevation Of Ground Level
 RUN .       3                                        : Run Number
 TRIP.       1                                        : Trip Number
 TDD .M      2931.0                                   : Total Depth - Driller
 TDL .M      2930.8                                   : Total Depth - Logger
 BLI .M      2920.5                                   : Bottom Log Interval
 TLI .M      2570.0                                   : Top Log Interval
 CSIZ.IN     9.625                                    : Casing Size
 CBDR.M      2572.0                                   : Casing Bottom - Driller
 CBLO.M      2570.0                                   : Casing Bottom - Logger
 BS  .IN     8.5                                      : Bit Size
 DFT .       OBM                                      : Drilling Fluid Type
 DFD .G/C3   1.12                                     : Drilling Fluid Density
 DFV .CP     21                                       : Drilling Fluid Viscosity
 DFL .ML     1.4                                      : Drilling Fluid Loss
 MSS .       ACTIVE PIT                               : Mud Sample Source
 MFSS.       N/A                                      : Mud Filtrate Sample Source
 MCSS.       N/A                                      : Mud Cake Sample Source
 TSC .       41 HRS 30 MINS                           : Time Since Circulation
 MRT .DEGC   83.1                                     : Maximum Recorded Temperature
 LUN .       Z006823                                  : Logging Unit Number
 LUL .       DEN HELDER                               : Logging Unit Location
 ENGI.       HEKEL/BUHNE/BUJOR                        : Engineer's Name
 WITN.       AUKE BARNHOORN                           : Witness' Name
 TSTR.       /ZDL/CN/GR/                              : Title Service Mnemonic
 TSTG.       NA                                       : Title Service Mnemonic
 STUS.       FINAL                                    : Status
 LCNM.       Baker Hughes                             : Logging Company Name
 LCC .       150                                      : Logging Company Code
 OPMD.       OH.WIRE                                  : Operation Mode
 PANA.       HEKEL/BUHNE/BUJOR                        : Processing Analyst
 PCON.       Baker Hughes                             : Processing Contractor
 APIN.                                                : API Serial Number
 LATI.DEG    0.0000                                   : Latitude
 LONG.DEG    0.0000                                   : Longitude
~Other information
GENERAL                                                                         
* LOG CORRELATED TO HDIL-XMAC RUN 1.1 FROM 09-SEP-2023.                         
* MAXIMUM DEVIATION OVER OPEN HOLE LOGGED INTERVAL IS 50.7 DEG AT 2700 M.       
* LAST CIRCULATION AT TD STOPPED AT  21 HRS ON 08-SEP-23 AFTER 3.25 HRS.        
* TOOLSTRING REACHED TD AT 14:30 HRS ON 10-SEP-2023.                            
TEMPERATURE:                                                                    
* MAXIMUM RECORDED TEMPERATURE FROM TTRM WAS 83.1 DEG C AT 2850 M.              
MUD DATA                                                                        
* MUD TYPE: OBM                                                                 
* MUD WEIGHT: 1.12 SG                                                           
* OIL WATER RATIO = 66.09 / 33.91                                               
* SOLIDS FRACTION = 10.9 %                                                      
* WATER % BY VOLUME = 29.5 %                                                    
* WATER PHASE CHLORIDES = 169491 MG/L                                           
* WHOLE MUD CHLORIDE CONTENT = 50000 MG/L                                       
* WHOLE MUD NACL EQUIVALENT = 79000 PPM                                         
GAMMA RAY / SPECTRALOG                                                          
* GAMMA RAY RUN DECENTRALISED.                                                  
* SPECTRALOG RECORDED BUT NOT PRESENTED FROM THIS RUN.                          
ZDL/CN                                                                          
* ZDL/CN DATA PRESENTED ON LIMESTONE SCALES.                                    
* CNC CURVE IS CALIPER AND SALINITY CORRECTED AND PRESENTED ON LIMESTONE MATRIX 
* NACL EQUIVALENT = 79000 PPM.                                                  
* ZDL/CN/GR RECORDED AT SAMPLE RATE OF 4 SPF.                                   
* DENSITY CURVE ZDNC IS BOREHOLE CORRECTED.                                     
* ZDL/CN LOGGED TOGETHER WITH MREX PASSES. PRESENTED LOG IS FROM                
  PP + LIGHT OIL PASS, RECORDED AT 1 M/MIN.                                     
#  Curve Data
~A    DEPT            BIT             CALX            CHT             CN              CNC             GR              PE              SPD             TEN             TTEN            WTBH            ZCOR            ZDEN            ZDNC        
# ...
       2897.2764          8.5000          8.4893       1433.1693         13.7432         13.5654         39.9066          1.6440          1.0005        -18.7801       5413.8125         82.8585          0.0068          2.4207          2.4164
       2897.3526          8.5000          8.4930       1446.4937         13.5515         13.3726         38.5520          1.6577          1.0002         -7.2653       5425.4800         82.8897          0.0140          2.4302          2.4258
       2897.4288          8.5000          8.4954       1455.7316         13.4137         13.2343         37.4147          1.6836          0.9999          0.5634       5433.0186         82.9037          0.0205          2.4441          2.4397
       2897.5050          8.5000          8.4976       1458.4451         13.3458         13.1655         36.5384          1.7169          0.9997          0.2852       5432.3862         82.9125          0.0259          2.4611          2.4568
       2897.5812          8.5000          8.5001       1454.7660         13.3320         13.1503         35.9431          1.7490          0.9998         -9.5161       5422.6714         82.8894          0.0297          2.4797          2.4754
       2897.6574          8.5000          8.5019       1446.6907         13.3515         13.1684         35.6712          1.7696          1.0001        -27.2804       5405.8945         82.8490          0.0316          2.4970          2.4927
       2897.7336          8.5000          8.5021       1435.9375         13.4114         13.2277         35.8299          1.7720          1.0005        -49.6694       5385.7026         82.8072          0.0311          2.5092          2.5050
       2897.8098          8.5000          8.5009       1423.4718         13.5427         13.3589         36.5799          1.7570          1.0008        -71.7953       5367.0840         82.7669          0.0276          2.5125          2.5083
       2897.8860          8.5000          8.4997       1411.0869         13.7573         13.5727         37.9878          1.7316          1.0007        -88.9375       5354.6440         82.7177          0.0214          2.5051          2.5009
       2897.9622          8.5000          8.5002       1400.1008         14.0293         13.8424         39.9289          1.7044          1.0005        -99.0114       5350.1987         82.6892          0.0138          2.4883          2.4840
       2898.0384          8.5000          8.5023       1390.3427         14.3018         14.1116         42.0829          1.6814          1.0002       -102.0944       5353.3164         82.6440          0.0065          2.4665          2.4622
       2898.1146          8.5000          8.5044       1381.2900         14.4942         14.3012         44.0124          1.6648          1.0000        -99.7282       5362.0830         82.6377          0.0015          2.4450          2.4407
       2898.1908          8.5000          8.5050       1372.9629         14.5361         14.3424         45.3275          1.6542          0.9999        -94.7487       5373.3555         82.6576         -0.0002          2.4282          2.4239
       2898.2670          8.5000          8.5032       1366.8755         14.4135         14.2219         45.8338          1.6484          0.9996        -89.5924       5384.5093         82.7024          0.0011          2.4180          2.4137
       2898.3432          8.5000          8.5000       1365.7081         14.1788         13.9910         45.5692          1.6467          0.9992        -85.0616       5394.6572         82.7427          0.0051          2.4149          2.4106
       2898.4194          8.5000          8.4970       1370.9501         13.9195         13.7354         44.7620          1.6488          0.9987        -81.5916       5403.3477         82.8020          0.0105          2.4176          2.4133
       2898.4956          8.5000          8.4956       1382.2091         13.7028         13.5212         43.7514          1.6550          0.9983        -80.4371       5409.3667         82.8368          0.0162          2.4243          2.4200
       2898.5718          8.5000          8.4960       1397.4382         13.5502         13.3694         42.8401          1.6656          0.9982        -82.2953       5412.1270         82.8448          0.0215          2.4333          2.4290
       2898.6480          8.5000          8.4971       1412.8586         13.4524         13.2716         42.1899          1.6793          0.9986        -85.1565       5413.7646         82.8253          0.0257          2.4432          2.4389
       2898.7242          8.5000          8.4975       1425.5642         13.3865         13.2060         41.8465          1.6930          0.9994        -84.0306       5419.2534         82.8062          0.0288          2.4527          2.4483
       2898.8004          8.5000          8.4961       1435.9991         13.3320         13.1527         41.7365          1.7020          1.0003        -73.5617       5433.7041         82.7754          0.0306          2.4599          2.4556
       2898.8766          8.5000          8.4929       1446.4093         13.2791         13.1022         41.6798          1.7030          1.0010        -52.0621       5458.3862         82.7483          0.0307          2.4632          2.4589
       2898.9528          8.5000          8.4888       1458.0176         13.2444         13.0703         41.5065          1.6952          1.0015        -24.3911       5488.0791         82.7267          0.0292          2.4616          2.4573
       2899.0290          8.5000          8.4847       1469.9204         13.2647         13.0931         41.1237          1.6811          1.0016          0.3039       5513.5874         82.7121          0.0266          2.4553          2.4510
       2899.1052          8.5000          8.4811       1478.6786         13.3730         13.2029         40.5201          1.6637          1.0015         12.9779       5526.2637         82.7054          0.0235          2.4461          2.4417
       2899.1814          8.5000          8.4789       1481.0583         13.5614         13.3913         39.7731          1.6460          1.0013         10.0471       5523.2480         82.7204          0.0208          2.4360          2.4317
       2899.2576          8.5000          8.4783       1477.1644         13.7891         13.6180         39.0049          1.6303          1.0010         -4.3056       5509.4258         82.7428          0.0190          2.4268          2.4225
       2899.3338          8.5000          8.4789       1469.9156         13.9995         13.8266         38.3410          1.6184          1.0008        -20.1797       5495.0107         82.7842          0.0183          2.4191          2.4147
       2899.4100          8.5000          8.4801       1462.6300         14.1431         13.9685         37.8785          1.6122          1.0006        -28.6939       5488.6724         82.8023          0.0182          2.4122          2.4078
       2899.4862          8.5000          8.4818       1458.3774         14.1980         14.0219         37.6614          1.6128          1.0002        -26.8090       5492.8984         82.7960          0.0186          2.4053          2.4010
       2899.5624          8.5000          8.4841       1458.1233         14.2008         14.0232         37.6280          1.6191          0.9999        -17.8677       5503.8032         82.7919          0.0190          2.3982          2.3939
       2899.6386          8.5000          8.4869       1460.0258         14.2196         14.0401         37.6486          1.6276          0.9995         -7.0035       5515.9526         82.7772          0.0196          2.3911          2.3868
       2899.7148          8.5000          8.4890       1461.4484         14.3310         14.1493         37.6209          1.6333          0.9993          1.2268       5524.7573         82.7528          0.0203          2.3849          2.3806
       2899.7910          8.5000          8.4888       1460.3262         14.5794         14.3962         37.5090          1.6321          0.9994          3.8448       5527.4258         82.7600          0.0214          2.3801          2.3758
