~Version Information
 VERS.                2.00:   CWLS log ASCII Standard -VERSION 2.00
 WRAP.                  NO:   One line per frame      
~Well Information Block
#MNEM.UNIT                     Data                     Description
#----.----   ----------------------------------------   -------------------------------
 STRT.M                                     2542.3368 : Starting Depth
 STOP.M                                     2933.0142 : Ending Depth
 STEP.M                                        0.0762 : Level Spacing
 NULL.                                      -999.2500 : Absent Value
 COMP.       GEOTHERMIE DELFT                         : Company
 WELL.       GT-01                                    : Well
 FLD .       DELFT                                    : Field
 LOC .       LOC400#3                                 : Location
 PROV.                                                : Province
 CTRY.       NETHERLANDS                              : Country
 SRVC.       Baker Hughes                             : Service Company
 DATE.       10-SEP-2023                              : Log Date
 UWI .                                                : Unique Well ID
 LIC .                                                : License Number
~Curve Information Block
#MNEM    .UNIT        API Codes     Curve Description
#--------.--------   LG--CV-CL--M   ---------------------------------------------------
 DEPT    .M          99 995 99  1 : Depth
 BIT     .in         70 282  1  1 : Bit size
 CALX    .in         70 280 13  1 : Caliper from X-axis of XY caliper(s)
 CHT     .lbf        99 635 99  1 : Cable head tension
 CN      .pu         42 890  1  1 : Compensated neutron porosity
 CNC     .pu         42 995 99  1 : Borehole size corrected compensated neutron porosity
 GR      .gAPI       30 310  1  1 : Gamma ray
 PE      .b/e        45 358  1  1 : Photo electric cross-section
 SPD     .m/min      99 636 99  1 : Speed
 TEN     .lbf        99 635 99  1 : Differential tension
 TTEN    .lbf        99 635 99  1 : Total tension
 WTBH    .degC       99 995 99  1 : Temperature of borehole
 ZCOR    .g/cm3      45 356 99  1 : Density correction
 ZDEN    .g/cm3      45 350  1  1 : Formation bulk density
 ZDNC    .g/cm3      94 995 99  1 : Borehole size/mud weight corrected density
~Parameter Information Block
#MNEM.UNIT                     Value                    Description
#----.----   ----------------------------------------   -------------------------------
 HID1.       COMPENSATED Z-DENSILOG^S                 : Header Identifier
 HID2.       COMPENSATED NEUTRON LOG                  : Header Identifier
 HID3.       GAMMA RAY LOG                            : Header Identifier
 FILE.       207823                                   : File Number
 CMT1.       FIELD PRINT                              : Comment 1  
 CMT2.       1:1000 SCALE                             : Comment 2  
 CMT3.       1:200 SCALE                              : Comment 3  
 FL  .       LAT:    52 DEG 0 MIN 1.562 SEC N         : Field Location
 FL1 .       LONG: 4 DEG 22 MIN 10.9 SEC E            : Field Location 1
 OS1 .       DSL,BHP                                  : Other Services Line 1
 OS2 .       HDIL/XMAC                                : Other Services Line 2
 OS3 .       MREX                                     : Other Services Line 3
 OS4 .       GXPL/UXPL                                : Other Services Line 4
 PDAT.       MSL                                      : Permanent Datum
 EPD .M      7.46                                     : Elevation Of Perm. Datum
 LMF .       DF                                       : Log Measured From
 APD .M      7.46                                     : Above Permanent Datum
 DMF .       DF                                       : Drilling Measured From
 EKB .M      7.46                                     : Elevation Of Kelly Bushing
 EDF .M      7.46                                     : Elevation Of Derrick Floor
 EGL .M      -0.54                                    : Elevation Of Ground Level
 RUN .       3                                        : Run Number
 TRIP.       1                                        : Trip Number
 TDD .M      2931.0                                   : Total Depth - Driller
 TDL .M      2930.8                                   : Total Depth - Logger
 BLI .M      2920.5                                   : Bottom Log Interval
 TLI .M      2570.0                                   : Top Log Interval
 CSIZ.IN     9.625                                    : Casing Size
 CBDR.M      2572.0                                   : Casing Bottom - Driller
 CBLO.M      2570.0                                   : Casing Bottom - Logger
 BS  .IN     8.5                                      : Bit Size
 DFT .       OBM                                      : Drilling Fluid Type
 DFD .G/C3   1.12                                     : Drilling Fluid Density
 DFV .CP     21                                       : Drilling Fluid Viscosity
 DFL .ML     1.4                                      : Drilling Fluid Loss
 MSS .       ACTIVE PIT                               : Mud Sample Source
 MFSS.       N/A                                      : Mud Filtrate Sample Source
 MCSS.       N/A                                      : Mud Cake Sample Source
 TSC .       41 HRS 30 MINS                           : Time Since Circulation
 MRT .DEGC   83.1                                     : Maximum Recorded Temperature
 LUN .       Z006823                                  : Logging Unit Number
 LUL .       DEN HELDER                               : Logging Unit Location
 ENGI.       HEKEL/BUHNE/BUJOR                        : Engineer's Name
 WITN.       AUKE BARNHOORN                           : Witness' Name
 TSTR.       /ZDL/CN/GR/                              : Title Service Mnemonic
 TSTG.       NA                                       : Title Service Mnemonic
 STUS.       FINAL                                    : Status
 LCNM.       Baker Hughes                             : Logging Company Name
 LCC .       150                                      : Logging Company Code
 OPMD.       OH.WIRE                                  : Operation Mode
 PANA.       HEKEL/BUHNE/BUJOR                        : Processing Analyst
 PCON.       Baker Hughes                             : Processing Contractor
 APIN.                                                : API Serial Number
 LATI.DEG    0.0000                                   : Latitude
 LONG.DEG    0.0000                                   : Longitude
~Other information
GENERAL                                                                         
* LOG CORRELATED TO HDIL-XMAC RUN 1.1 FROM 09-SEP-2023.                         
* MAXIMUM DEVIATION OVER OPEN HOLE LOGGED INTERVAL IS 50.7 DEG AT 2700 M.       
* LAST CIRCULATION AT TD STOPPED AT  21 HRS ON 08-SEP-23 AFTER 3.25 HRS.        
* TOOLSTRING REACHED TD AT 14:30 HRS ON 10-SEP-2023.                            
TEMPERATURE:                                                                    
* MAXIMUM RECORDED TEMPERATURE FROM TTRM WAS 83.1 DEG C AT 2850 M.              
MUD DATA                                                                        
* MUD TYPE: OBM                                                                 
* MUD WEIGHT: 1.12 SG                                                           
* OIL WATER RATIO = 66.09 / 33.91                                               
* SOLIDS FRACTION = 10.9 %                                                      
* WATER % BY VOLUME = 29.5 %                                                    
* WATER PHASE CHLORIDES = 169491 MG/L                                           
* WHOLE MUD CHLORIDE CONTENT = 50000 MG/L                                       
* WHOLE MUD NACL EQUIVALENT = 79000 PPM                                         
GAMMA RAY / SPECTRALOG                                                          
* GAMMA RAY RUN DECENTRALISED.                                                  
* SPECTRALOG RECORDED BUT NOT PRESENTED FROM THIS RUN.                          
ZDL/CN                                                                          
* ZDL/CN DATA PRESENTED ON LIMESTONE SCALES.                                    
* CNC CURVE IS CALIPER AND SALINITY CORRECTED AND PRESENTED ON LIMESTONE MATRIX 
* NACL EQUIVALENT = 79000 PPM.                                                  
* ZDL/CN/GR RECORDED AT SAMPLE RATE OF 4 SPF.                                   
* DENSITY CURVE ZDNC IS BOREHOLE CORRECTED.                                     
* ZDL/CN LOGGED TOGETHER WITH MREX PASSES. PRESENTED LOG IS FROM                
  PP + LIGHT OIL PASS, RECORDED AT 1 M/MIN.                                     
#  Curve Data
~A    DEPT            BIT             CALX            CHT             CN              CNC             GR              PE              SPD             TEN             TTEN            WTBH            ZCOR            ZDEN            ZDNC        
# ...
       2674.4676          8.5000          8.5003       1322.3732          7.1016          6.9736         40.2133          1.5907          1.0003         51.8954       5160.7612         80.7035          0.0210          2.5559          2.5518
       2674.5438          8.5000          8.4934       1309.2804          7.5111          7.3823         39.7456          1.5880          0.9998         28.5517       5134.9209         80.7026          0.0235          2.5514          2.5472
       2674.6200          8.5000          8.4874       1293.9088          7.8697          7.7404         39.5290          1.5891          0.9992          3.7961       5109.1089         80.6754          0.0256          2.5472          2.5430
       2674.6962          8.5000          8.4842       1279.2651          8.1398          8.0095         39.7436          1.5936          0.9989        -16.1871       5089.4688         80.6238          0.0270          2.5438          2.5396
       2674.7724          8.5000          8.4844       1268.3860          8.3130          8.1812         40.5031          1.6007          0.9991        -27.1552       5079.8726         80.5513          0.0277          2.5415          2.5373
       2674.8486          8.5000          8.4864       1263.2522          8.4238          8.2900         41.7668          1.6104          0.9997        -28.6422       5080.2363         80.5023          0.0275          2.5407          2.5365
       2674.9248          8.5000          8.4879       1264.3234          8.5359          8.4004         43.3557          1.6223          1.0003        -22.8121       5087.8384         80.4802          0.0265          2.5411          2.5369
       2675.0010          8.5000          8.4873       1270.4868          8.7059          8.5692         44.9726          1.6354          1.0006        -12.8212       5099.0752         80.4602          0.0249          2.5418          2.5376
       2675.0772          8.5000          8.4852       1278.9480          8.9759          8.8378         46.2842          1.6453          1.0007         -1.3077       5111.0493         80.4567          0.0226          2.5409          2.5367
       2675.1534          8.5000          8.4839       1286.1138          9.3503          9.2098         47.0386          1.6462          1.0005          9.7495       5121.7368         80.4701          0.0194          2.5359          2.5317
       2675.2296          8.5000          8.4848       1288.8451          9.8012          9.6564         47.1190          1.6337          1.0003         18.4977       5129.4316         80.4861          0.0153          2.5241          2.5199
       2675.3058          8.5000          8.4888       1286.2645         10.2880         10.1370         46.5083          1.6090          1.0003         24.2585       5133.7046         80.5170          0.0105          2.5045          2.5003
       2675.3820          8.5000          8.4950       1280.7128         10.7799         10.6215         45.2788          1.5779          1.0004         28.1243       5135.8525         80.5606          0.0060          2.4784          2.4741
       2675.4582          8.5000          8.5016       1276.2643         11.2575         11.0914         43.5602          1.5478          1.0006         31.9164       5137.7354         80.5876          0.0027          2.4492          2.4449
       2675.5344          8.5000          8.5069       1275.6420         11.7052         11.5323         41.4919          1.5236          1.0006         35.6991       5139.3311         80.6225          0.0018          2.4216          2.4173
       2675.6106          8.5000          8.5094       1279.1453         12.0937         11.9161         39.2388          1.5074          1.0004         37.2131       5138.3389         80.6498          0.0035          2.3994          2.3951
       2675.6868          8.5000          8.5092       1285.0128         12.3922         12.2122         37.0085          1.4989          1.0001         33.9894       5132.4219         80.6675          0.0075          2.3854          2.3811
       2675.7630          8.5000          8.5080       1290.7416         12.5803         12.3996         35.0334          1.4968          0.9999         25.6209       5121.4595         80.6877          0.0129          2.3805          2.3762
       2675.8392          8.5000          8.5080       1294.6321         12.6558         12.4744         33.5963          1.5008          0.9998         13.7582       5107.4111         80.7221          0.0188          2.3845          2.3802
       2675.9154          8.5000          8.5102       1295.9454         12.6172         12.4349         32.9612          1.5111          0.9999          0.2319       5092.3286         80.7421          0.0240          2.3959          2.3916
       2675.9916          8.5000          8.5136       1295.0999         12.4873         12.3040         33.2603          1.5278          0.9999        -13.8848       5077.3960         80.7594          0.0278          2.4124          2.4081
       2676.0678          8.5000          8.5164       1293.0680         12.3097         12.1262         34.4656          1.5492          0.9997        -27.3680       5063.8550         80.7598          0.0297          2.4312          2.4268
       2676.1440          8.5000          8.5169       1290.8164         12.1171         11.9349         36.3752          1.5710          0.9994        -37.9936       5053.8501         80.7563          0.0296          2.4494          2.4451
       2676.2202          8.5000          8.5142       1289.6656         11.9312         11.7522         38.6446          1.5881          0.9989        -43.1447       5049.8193         80.7493          0.0277          2.4652          2.4609
       2676.2964          8.5000          8.5092       1291.4327         11.7796         11.6048         40.9431          1.5968          0.9986        -40.2715       5054.0288         80.7391          0.0248          2.4782          2.4740
       2676.3726          8.5000          8.5037       1296.7245         11.7003         11.5292         43.0767          1.5968          0.9987        -28.4399       5067.0396         80.7264          0.0218          2.4895          2.4852
       2676.4488          8.5000          8.4996       1304.6597         11.7425         11.5735         44.9664          1.5912          0.9990         -9.1861       5086.9512         80.7123          0.0197          2.5005          2.4962
       2676.5250          8.5000          8.4979       1312.9690         11.9407         11.7711         46.5854          1.5847          0.9996         13.4061       5109.4248         80.6843          0.0187          2.5121          2.5079
       2676.6012          8.5000          8.4983       1319.3983         12.3059         12.1331         47.9019          1.5811          1.0002         35.0804       5130.0952         80.6577          0.0187          2.5233          2.5191
       2676.6774          8.5000          8.4996       1322.5015         12.8347         12.6570         48.7931          1.5807          1.0007         52.4958       5145.6592         80.6210          0.0187          2.5315          2.5273
       2676.7536          8.5000          8.5005       1322.2556         13.4872         13.3040         49.0713          1.5808          1.0011         63.5980       5154.2319         80.6031          0.0176          2.5325          2.5283
       2676.8298          8.5000          8.5006       1319.1823         14.1775         13.9893         48.5886          1.5773          1.0014         67.3496       5155.0293         80.5788          0.0142          2.5217          2.5175
       2676.9060          8.5000          8.4995       1313.7480         14.8047         14.6129         47.2578          1.5670          1.0014         63.5808       5148.1875         80.5763          0.0081          2.4966          2.4924
       2676.9822          8.5000          8.4971       1306.1204         15.3222         15.1287         45.0600          1.5483          1.0012         51.6408       5133.4146         80.5692          0.0000          2.4585          2.4542
