~Version Information
 VERS.                2.00:   CWLS log ASCII Standard -VERSION 2.00
 WRAP.                  NO:   One line per frame      
~Well Information Block
#MNEM.UNIT                     Data                     Description
#----.----   ----------------------------------------   -------------------------------
 STRT.M                                     2542.3368 : Starting Depth
 STOP.M                                     2933.0142 : Ending Depth
 STEP.M                                        0.0762 : Level Spacing
 NULL.                                      -999.2500 : Absent Value
 COMP.       GEOTHERMIE DELFT                         : Company
 WELL.       GT-01                                    : Well
 FLD .       DELFT                                    : Field
 LOC .       LOC400#3                                 : Location
 PROV.                                                : Province
 CTRY.       NETHERLANDS                              : Country
 SRVC.       Baker Hughes                             : Service Company
 DATE.       10-SEP-2023                              : Log Date
 UWI .                                                : Unique Well ID
 LIC .                                                : License Number
~Curve Information Block
#MNEM    .UNIT        API Codes     Curve Description
#--------.--------   LG--CV-CL--M   ---------------------------------------------------
 DEPT    .M          99 995 99  1 : Depth
 BIT     .in         70 282  1  1 : Bit size
 CALX    .in         70 280 13  1 : Caliper from X-axis of XY caliper(s)
 CHT     .lbf        99 635 99  1 : Cable head tension
 CN      .pu         42 890  1  1 : Compensated neutron porosity
 CNC     .pu         42 995 99  1 : Borehole size corrected compensated neutron porosity
 GR      .gAPI       30 310  1  1 : Gamma ray
 PE      .b/e        45 358  1  1 : Photo electric cross-section
 SPD     .m/min      99 636 99  1 : Speed
 TEN     .lbf        99 635 99  1 : Differential tension
 TTEN    .lbf        99 635 99  1 : Total tension
 WTBH    .degC       99 995 99  1 : Temperature of borehole
 ZCOR    .g/cm3      45 356 99  1 : Density correction
 ZDEN    .g/cm3      45 350  1  1 : Formation bulk density
 ZDNC    .g/cm3      94 995 99  1 : Borehole size/mud weight corrected density
~Parameter Information Block
#MNEM.UNIT                     Value                    Description
#----.----   ----------------------------------------   -------------------------------
 HID1.       COMPENSATED Z-DENSILOG^S                 : Header Identifier
 HID2.       COMPENSATED NEUTRON LOG                  : Header Identifier
 HID3.       GAMMA RAY LOG                            : Header Identifier
 FILE.       207823                                   : File Number
 CMT1.       FIELD PRINT                              : Comment 1  
 CMT2.       1:1000 SCALE                             : Comment 2  
 CMT3.       1:200 SCALE                              : Comment 3  
 FL  .       LAT:    52 DEG 0 MIN 1.562 SEC N         : Field Location
 FL1 .       LONG: 4 DEG 22 MIN 10.9 SEC E            : Field Location 1
 OS1 .       DSL,BHP                                  : Other Services Line 1
 OS2 .       HDIL/XMAC                                : Other Services Line 2
 OS3 .       MREX                                     : Other Services Line 3
 OS4 .       GXPL/UXPL                                : Other Services Line 4
 PDAT.       MSL                                      : Permanent Datum
 EPD .M      7.46                                     : Elevation Of Perm. Datum
 LMF .       DF                                       : Log Measured From
 APD .M      7.46                                     : Above Permanent Datum
 DMF .       DF                                       : Drilling Measured From
 EKB .M      7.46                                     : Elevation Of Kelly Bushing
 EDF .M      7.46                                     : Elevation Of Derrick Floor
 EGL .M      -0.54                                    : Elevation Of Ground Level
 RUN .       3                                        : Run Number
 TRIP.       1                                        : Trip Number
 TDD .M      2931.0                                   : Total Depth - Driller
 TDL .M      2930.8                                   : Total Depth - Logger
 BLI .M      2920.5                                   : Bottom Log Interval
 TLI .M      2570.0                                   : Top Log Interval
 CSIZ.IN     9.625                                    : Casing Size
 CBDR.M      2572.0                                   : Casing Bottom - Driller
 CBLO.M      2570.0                                   : Casing Bottom - Logger
 BS  .IN     8.5                                      : Bit Size
 DFT .       OBM                                      : Drilling Fluid Type
 DFD .G/C3   1.12                                     : Drilling Fluid Density
 DFV .CP     21                                       : Drilling Fluid Viscosity
 DFL .ML     1.4                                      : Drilling Fluid Loss
 MSS .       ACTIVE PIT                               : Mud Sample Source
 MFSS.       N/A                                      : Mud Filtrate Sample Source
 MCSS.       N/A                                      : Mud Cake Sample Source
 TSC .       41 HRS 30 MINS                           : Time Since Circulation
 MRT .DEGC   83.1                                     : Maximum Recorded Temperature
 LUN .       Z006823                                  : Logging Unit Number
 LUL .       DEN HELDER                               : Logging Unit Location
 ENGI.       HEKEL/BUHNE/BUJOR                        : Engineer's Name
 WITN.       AUKE BARNHOORN                           : Witness' Name
 TSTR.       /ZDL/CN/GR/                              : Title Service Mnemonic
 TSTG.       NA                                       : Title Service Mnemonic
 STUS.       FINAL                                    : Status
 LCNM.       Baker Hughes                             : Logging Company Name
 LCC .       150                                      : Logging Company Code
 OPMD.       OH.WIRE                                  : Operation Mode
 PANA.       HEKEL/BUHNE/BUJOR                        : Processing Analyst
 PCON.       Baker Hughes                             : Processing Contractor
 APIN.                                                : API Serial Number
 LATI.DEG    0.0000                                   : Latitude
 LONG.DEG    0.0000                                   : Longitude
~Other information
GENERAL                                                                         
* LOG CORRELATED TO HDIL-XMAC RUN 1.1 FROM 09-SEP-2023.                         
* MAXIMUM DEVIATION OVER OPEN HOLE LOGGED INTERVAL IS 50.7 DEG AT 2700 M.       
* LAST CIRCULATION AT TD STOPPED AT  21 HRS ON 08-SEP-23 AFTER 3.25 HRS.        
* TOOLSTRING REACHED TD AT 14:30 HRS ON 10-SEP-2023.                            
TEMPERATURE:                                                                    
* MAXIMUM RECORDED TEMPERATURE FROM TTRM WAS 83.1 DEG C AT 2850 M.              
MUD DATA                                                                        
* MUD TYPE: OBM                                                                 
* MUD WEIGHT: 1.12 SG                                                           
* OIL WATER RATIO = 66.09 / 33.91                                               
* SOLIDS FRACTION = 10.9 %                                                      
* WATER % BY VOLUME = 29.5 %                                                    
* WATER PHASE CHLORIDES = 169491 MG/L                                           
* WHOLE MUD CHLORIDE CONTENT = 50000 MG/L                                       
* WHOLE MUD NACL EQUIVALENT = 79000 PPM                                         
GAMMA RAY / SPECTRALOG                                                          
* GAMMA RAY RUN DECENTRALISED.                                                  
* SPECTRALOG RECORDED BUT NOT PRESENTED FROM THIS RUN.                          
ZDL/CN                                                                          
* ZDL/CN DATA PRESENTED ON LIMESTONE SCALES.                                    
* CNC CURVE IS CALIPER AND SALINITY CORRECTED AND PRESENTED ON LIMESTONE MATRIX 
* NACL EQUIVALENT = 79000 PPM.                                                  
* ZDL/CN/GR RECORDED AT SAMPLE RATE OF 4 SPF.                                   
* DENSITY CURVE ZDNC IS BOREHOLE CORRECTED.                                     
* ZDL/CN LOGGED TOGETHER WITH MREX PASSES. PRESENTED LOG IS FROM                
  PP + LIGHT OIL PASS, RECORDED AT 1 M/MIN.                                     
#  Curve Data
~A    DEPT            BIT             CALX            CHT             CN              CNC             GR              PE              SPD             TEN             TTEN            WTBH            ZCOR            ZDEN            ZDNC        
# ...
       2552.7000       -999.2500          8.6857       -999.2500         34.7796         34.3964         56.7043          0.0093       -999.2500       -999.2500       -999.2500         74.6491       -999.2500       -999.2500       -999.2500
       2552.7762       -999.2500          8.6821       -999.2500         34.3413         33.9586         56.1441          0.0145       -999.2500       -999.2500       -999.2500         74.7308         -0.4833          2.5226          2.5185
       2552.8524       -999.2500          8.6791       -999.2500         34.1893         33.8090         55.5460          0.0184       -999.2500       -999.2500       -999.2500         75.0355         -0.4872          2.5050          2.5008
       2552.9286       -999.2500          8.6780       -999.2500         34.6426         34.2672         54.9189          0.0186       -999.2500       -999.2500       -999.2500         75.5024         -0.4944          2.4827          2.4785
       2553.0048       -999.2500          8.6785       -999.2500         35.9665         35.6033         54.3891          0.0147       -999.2500       -999.2500       -999.2500         76.0997         -0.5034          2.4583          2.4540
       2553.0810       -999.2500          8.6792       -999.2500         38.2716         37.9365         54.0942          0.0087       -999.2500       -999.2500       -999.2500         76.8004         -0.5128          2.4342          2.4299
       2553.1572       -999.2500          8.6787       -999.2500         41.3431         41.0615         54.1194          0.0034       -999.2500       -999.2500       -999.2500         77.5562         -0.5209          2.4135          2.4091
       2553.2334       -999.2500          8.6765       -999.2500         44.6117         44.4090         54.4511          0.0007       -999.2500       -999.2500       -999.2500         77.5651         -0.5261          2.4008          2.3965
       2553.3096       -999.2500          8.6738       -999.2500         47.1131         46.9871         54.9445          0.0000       -999.2500       -999.2500       -999.2500         77.5903         -0.5267          2.4017          2.3974
       2553.3858       -999.2500          8.6718       -999.2500         47.8790         47.7809         55.3944          0.0000       -999.2500       -999.2500       -999.2500         77.6302         -0.5214          2.4210          2.4167
       2553.4620       -999.2500          8.6715       -999.2500         46.7374         46.6029         55.6616          0.0000       -999.2500       -999.2500       -999.2500         77.6556         -0.5097          2.4609          2.4567
       2553.5382       -999.2500          8.6732       -999.2500         44.4265         44.2234         55.7500          0.0000       -999.2500       -999.2500       -999.2500         77.6649         -0.4923          2.5188          2.5146
       2553.6144       -999.2500          8.6766       -999.2500         41.8769         41.6091         55.7548          0.0000       -999.2500       -999.2500       -999.2500         77.6837         -0.4721          2.5843          2.5804
       2553.6906       -999.2500          8.6808       -999.2500         39.8155         39.5027         55.7875          0.0000       -999.2500       -999.2500       -999.2500         77.6844         -0.4538          2.6391          2.6354
       2553.7668       -999.2500          8.6849       -999.2500         38.6345         38.2976         55.9021          0.0000       -999.2500       -999.2500       -999.2500         77.7065         -0.4428          2.6628          2.6592
       2553.8430       -999.2500          8.6877       -999.2500         38.4605         38.1175         56.0205          0.0000       -999.2500       -999.2500       -999.2500         77.7353         -0.4415          2.6467          2.6431
       2553.9192       -999.2500          8.6880       -999.2500         39.2780         38.9471         56.0566          0.0000       -999.2500       -999.2500       -999.2500         77.7425         -0.4470          2.6017          2.5978
       2553.9954       -999.2500          8.6853       -999.2500         40.9252         40.6268         56.0459          0.0000       -999.2500       -999.2500       -999.2500         77.7276         -0.4541          2.5490          2.5450
       2554.0716       -999.2500          8.6801       -999.2500         43.0082         42.7608         56.0968          0.0000       -999.2500       -999.2500       -999.2500         77.6785         -0.4585          2.5070          2.5028
       2554.1478       -999.2500          8.6736       -999.2500         44.9608         44.7714         56.3053          0.0000       -999.2500       -999.2500       -999.2500         77.6379         -0.4582          2.4848          2.4806
       2554.2240       -999.2500          8.6674       -999.2500         46.3249         46.1834         56.6541          0.0000       -999.2500       -999.2500       -999.2500         77.5693         -0.4536          2.4833          2.4791
       2554.3002       -999.2500          8.6627       -999.2500         47.0250         46.9118         57.0051          0.0000       -999.2500       -999.2500       -999.2500         77.5166         -0.4461          2.4975          2.4933
       2554.3764       -999.2500          8.6601       -999.2500         47.2932         47.1923         57.1886          0.0000       -999.2500       -999.2500       -999.2500         77.4705         -0.4376          2.5206          2.5165
       2554.4526       -999.2500          8.6605       -999.2500         47.4861         47.3910         57.0953          0.0000       -999.2500       -999.2500       -999.2500         77.4471         -0.4290          2.5483          2.5442
       2554.5288       -999.2500          8.6644       -999.2500         47.8182         47.7286         56.7176          0.0000       -999.2500       -999.2500       -999.2500         77.4613         -0.4196          2.5813          2.5774
       2554.6050       -999.2500          8.6712       -999.2500         48.3870         48.3072         56.2045          0.0000       -999.2500       -999.2500       -999.2500         77.4989         -0.4077          2.6253          2.6215
       2554.6812       -999.2500          8.6790       -999.2500         49.3514         49.2951         55.7969         20.2140       -999.2500       -999.2500       -999.2500         77.5705         -0.3917          2.6849          2.6814
       2554.7574       -999.2500          8.6855       -999.2500         50.8784         50.8718         55.6796         20.2140       -999.2500       -999.2500       -999.2500         77.6581         -0.3724          2.7575          2.7545
       2554.8336       -999.2500          8.6887       -999.2500         53.1410         53.2275         55.8402         20.2140       -999.2500       -999.2500       -999.2500         77.7557         -0.3538          2.8274          2.8251
       2554.9098       -999.2500          8.6883       -999.2500         55.8855         56.1083         56.1709         20.2140       -999.2500       -999.2500       -999.2500         77.8303         -0.3432          2.8688          2.8668
       2554.9860       -999.2500          8.6854       -999.2500         58.3037         58.6670         56.5278          0.0000       -999.2500       -999.2500       -999.2500         77.8636         -0.3454          2.8636          2.8616
       2555.0622       -999.2500          8.6813       -999.2500         59.3298         59.7619         56.8045          0.0000       -999.2500       -999.2500       -999.2500         77.8666         -0.3581          2.8201          2.8176
       2555.1384       -999.2500          8.6773       -999.2500         58.5235         58.9119         56.9457          0.0000       -999.2500       -999.2500       -999.2500         77.8391         -0.3742          2.7653          2.7624
       2555.2146       -999.2500          8.6750       -999.2500         56.3727         56.6413         56.9728          0.0000       -999.2500       -999.2500       -999.2500         77.7960         -0.3871          2.7231          2.7200
