~Version Information
 VERS.                2.00:   CWLS log ASCII Standard -VERSION 2.00
 WRAP.                  NO:   One line per frame      
~Well Information Block
#MNEM.UNIT                     Data                     Description
#----.----   ----------------------------------------   -------------------------------
 STRT.M                                     2542.3368 : Starting Depth
 STOP.M                                     2933.0142 : Ending Depth
 STEP.M                                        0.0762 : Level Spacing
 NULL.                                      -999.2500 : Absent Value
 COMP.       GEOTHERMIE DELFT                         : Company
 WELL.       GT-01                                    : Well
 FLD .       DELFT                                    : Field
 LOC .       LOC400#3                                 : Location
 PROV.                                                : Province
 CTRY.       NETHERLANDS                              : Country
 SRVC.       Baker Hughes                             : Service Company
 DATE.       10-SEP-2023                              : Log Date
 UWI .                                                : Unique Well ID
 LIC .                                                : License Number
~Curve Information Block
#MNEM    .UNIT        API Codes     Curve Description
#--------.--------   LG--CV-CL--M   ---------------------------------------------------
 DEPT    .M          99 995 99  1 : Depth
 BIT     .in         70 282  1  1 : Bit size
 CALX    .in         70 280 13  1 : Caliper from X-axis of XY caliper(s)
 CHT     .lbf        99 635 99  1 : Cable head tension
 CN      .pu         42 890  1  1 : Compensated neutron porosity
 CNC     .pu         42 995 99  1 : Borehole size corrected compensated neutron porosity
 GR      .gAPI       30 310  1  1 : Gamma ray
 PE      .b/e        45 358  1  1 : Photo electric cross-section
 SPD     .m/min      99 636 99  1 : Speed
 TEN     .lbf        99 635 99  1 : Differential tension
 TTEN    .lbf        99 635 99  1 : Total tension
 WTBH    .degC       99 995 99  1 : Temperature of borehole
 ZCOR    .g/cm3      45 356 99  1 : Density correction
 ZDEN    .g/cm3      45 350  1  1 : Formation bulk density
 ZDNC    .g/cm3      94 995 99  1 : Borehole size/mud weight corrected density
~Parameter Information Block
#MNEM.UNIT                     Value                    Description
#----.----   ----------------------------------------   -------------------------------
 HID1.       COMPENSATED Z-DENSILOG^S                 : Header Identifier
 HID2.       COMPENSATED NEUTRON LOG                  : Header Identifier
 HID3.       GAMMA RAY LOG                            : Header Identifier
 FILE.       207823                                   : File Number
 CMT1.       FIELD PRINT                              : Comment 1  
 CMT2.       1:1000 SCALE                             : Comment 2  
 CMT3.       1:200 SCALE                              : Comment 3  
 FL  .       LAT:    52 DEG 0 MIN 1.562 SEC N         : Field Location
 FL1 .       LONG: 4 DEG 22 MIN 10.9 SEC E            : Field Location 1
 OS1 .       DSL,BHP                                  : Other Services Line 1
 OS2 .       HDIL/XMAC                                : Other Services Line 2
 OS3 .       MREX                                     : Other Services Line 3
 OS4 .       GXPL/UXPL                                : Other Services Line 4
 PDAT.       MSL                                      : Permanent Datum
 EPD .M      7.46                                     : Elevation Of Perm. Datum
 LMF .       DF                                       : Log Measured From
 APD .M      7.46                                     : Above Permanent Datum
 DMF .       DF                                       : Drilling Measured From
 EKB .M      7.46                                     : Elevation Of Kelly Bushing
 EDF .M      7.46                                     : Elevation Of Derrick Floor
 EGL .M      -0.54                                    : Elevation Of Ground Level
 RUN .       3                                        : Run Number
 TRIP.       1                                        : Trip Number
 TDD .M      2931.0                                   : Total Depth - Driller
 TDL .M      2930.8                                   : Total Depth - Logger
 BLI .M      2920.5                                   : Bottom Log Interval
 TLI .M      2570.0                                   : Top Log Interval
 CSIZ.IN     9.625                                    : Casing Size
 CBDR.M      2572.0                                   : Casing Bottom - Driller
 CBLO.M      2570.0                                   : Casing Bottom - Logger
 BS  .IN     8.5                                      : Bit Size
 DFT .       OBM                                      : Drilling Fluid Type
 DFD .G/C3   1.12                                     : Drilling Fluid Density
 DFV .CP     21                                       : Drilling Fluid Viscosity
 DFL .ML     1.4                                      : Drilling Fluid Loss
 MSS .       ACTIVE PIT                               : Mud Sample Source
 MFSS.       N/A                                      : Mud Filtrate Sample Source
 MCSS.       N/A                                      : Mud Cake Sample Source
 TSC .       41 HRS 30 MINS                           : Time Since Circulation
 MRT .DEGC   83.1                                     : Maximum Recorded Temperature
 LUN .       Z006823                                  : Logging Unit Number
 LUL .       DEN HELDER                               : Logging Unit Location
 ENGI.       HEKEL/BUHNE/BUJOR                        : Engineer's Name
 WITN.       AUKE BARNHOORN                           : Witness' Name
 TSTR.       /ZDL/CN/GR/                              : Title Service Mnemonic
 TSTG.       NA                                       : Title Service Mnemonic
 STUS.       FINAL                                    : Status
 LCNM.       Baker Hughes                             : Logging Company Name
 LCC .       150                                      : Logging Company Code
 OPMD.       OH.WIRE                                  : Operation Mode
 PANA.       HEKEL/BUHNE/BUJOR                        : Processing Analyst
 PCON.       Baker Hughes                             : Processing Contractor
 APIN.                                                : API Serial Number
 LATI.DEG    0.0000                                   : Latitude
 LONG.DEG    0.0000                                   : Longitude
~Other information
GENERAL                                                                         
* LOG CORRELATED TO HDIL-XMAC RUN 1.1 FROM 09-SEP-2023.                         
* MAXIMUM DEVIATION OVER OPEN HOLE LOGGED INTERVAL IS 50.7 DEG AT 2700 M.       
* LAST CIRCULATION AT TD STOPPED AT  21 HRS ON 08-SEP-23 AFTER 3.25 HRS.        
* TOOLSTRING REACHED TD AT 14:30 HRS ON 10-SEP-2023.                            
TEMPERATURE:                                                                    
* MAXIMUM RECORDED TEMPERATURE FROM TTRM WAS 83.1 DEG C AT 2850 M.              
MUD DATA                                                                        
* MUD TYPE: OBM                                                                 
* MUD WEIGHT: 1.12 SG                                                           
* OIL WATER RATIO = 66.09 / 33.91                                               
* SOLIDS FRACTION = 10.9 %                                                      
* WATER % BY VOLUME = 29.5 %                                                    
* WATER PHASE CHLORIDES = 169491 MG/L                                           
* WHOLE MUD CHLORIDE CONTENT = 50000 MG/L                                       
* WHOLE MUD NACL EQUIVALENT = 79000 PPM                                         
GAMMA RAY / SPECTRALOG                                                          
* GAMMA RAY RUN DECENTRALISED.                                                  
* SPECTRALOG RECORDED BUT NOT PRESENTED FROM THIS RUN.                          
ZDL/CN                                                                          
* ZDL/CN DATA PRESENTED ON LIMESTONE SCALES.                                    
* CNC CURVE IS CALIPER AND SALINITY CORRECTED AND PRESENTED ON LIMESTONE MATRIX 
* NACL EQUIVALENT = 79000 PPM.                                                  
* ZDL/CN/GR RECORDED AT SAMPLE RATE OF 4 SPF.                                   
* DENSITY CURVE ZDNC IS BOREHOLE CORRECTED.                                     
* ZDL/CN LOGGED TOGETHER WITH MREX PASSES. PRESENTED LOG IS FROM                
  PP + LIGHT OIL PASS, RECORDED AT 1 M/MIN.                                     
#  Curve Data
~A    DEPT            BIT             CALX            CHT             CN              CNC             GR              PE              SPD             TEN             TTEN            WTBH            ZCOR            ZDEN            ZDNC        
# ...
       2601.9252          8.5000          8.5187       1081.1117         18.3611         18.1343         18.7265          1.4097          0.9998        -22.3856       4776.0728         78.9432          0.0258          2.3241          2.3199
       2602.0014          8.5000          8.5113       1076.8982         18.4136         18.1922         19.2774          1.4154          0.9998        -22.1592       4777.2568         78.9722          0.0243          2.3217          2.3174
       2602.0776          8.5000          8.5029       1074.2595         18.5413         18.3259         19.4789          1.4183          0.9998        -24.0288       4776.4331         79.0138          0.0231          2.3178          2.3136
       2602.1538          8.5000          8.4957       1072.8701         18.6607         18.4505         19.3423          1.4150          0.9999        -27.4449       4774.2920         79.0257          0.0226          2.3135          2.3093
       2602.2300          8.5000          8.4916       1071.9141         18.7115         18.5043         18.9987          1.4057          0.9998        -30.8816       4772.4248         79.0071          0.0231          2.3101          2.3059
       2602.3062          8.5000          8.4912       1070.3215         18.6765         18.4697         18.6311          1.3932          0.9997        -32.9530       4772.1729         78.9724          0.0247          2.3087          2.3045
       2602.3824          8.5000          8.4944       1068.5676         18.5818         18.3729         18.3941          1.3813          0.9995        -33.3370       4773.7397         78.9239          0.0270          2.3098          2.3056
       2602.4586          8.5000          8.4998       1069.5402         18.4739         18.2612         18.3751          1.3732          0.9993        -33.0042       4776.0503         78.8914          0.0298          2.3131          2.3089
       2602.5348          8.5000          8.5046       1075.7178         18.3889         18.1729         18.5824          1.3705          0.9991        -33.3903       4777.6362         78.8375          0.0324          2.3179          2.3137
       2602.6110          8.5000          8.5064       1087.3820         18.3235         18.1064         18.9804          1.3730          0.9992        -34.8817       4778.1440         78.7791          0.0344          2.3232          2.3190
       2602.6872          8.5000          8.5044       1102.2537         18.2600         18.0448         19.5339          1.3800          0.9997        -37.2361       4777.8662         78.7465          0.0359          2.3285          2.3242
       2602.7634          8.5000          8.4990       1116.2205         18.1995         17.9886         20.2179          1.3915          1.0005        -40.0738       4777.2090         78.7419          0.0368          2.3337          2.3294
       2602.8396          8.5000          8.4926       1125.3147         18.1558         17.9502         21.0048          1.4079          1.0013        -42.9173       4776.6406         78.7656          0.0377          2.3392          2.3350
       2602.9158          8.5000          8.4877       1128.8132         18.1593         17.9574         21.8782          1.4293          1.0018        -45.2573       4776.6152         78.8028          0.0390          2.3459          2.3416
       2602.9920          8.5000          8.4858       1129.1256         18.2344         18.0337         22.8742          1.4535          1.0018        -46.9120       4777.2119         78.8511          0.0407          2.3539          2.3496
       2603.0682          8.5000          8.4862       1129.8179         18.3694         18.1678         24.0741          1.4774          1.0013        -47.7947       4778.4312         78.9070          0.0428          2.3629          2.3586
       2603.1444          8.5000          8.4876       1133.5385         18.5452         18.3417         25.5300          1.4976          1.0007        -46.7714       4781.3701         78.9406          0.0446          2.3716          2.3673
       2603.2206          8.5000          8.4883       1140.0415         18.7264         18.5217         27.2103          1.5116          1.0001        -43.0737       4786.7891         78.9494          0.0456          2.3786          2.3742
       2603.2968          8.5000          8.4870       1145.8105         18.8726         18.6684         28.9481          1.5182          0.9997        -37.8175       4793.5996         78.9592          0.0451          2.3824          2.3781
       2603.3730          8.5000          8.4844       1147.4280         18.9710         18.7685         30.4512          1.5171          0.9995        -33.5437       4799.3442         78.9825          0.0431          2.3822          2.3778
       2603.4492          8.5000          8.4820       1143.8262         19.0480         18.8471         31.3989          1.5090          0.9993        -32.6430       4801.7539         79.0046          0.0396          2.3779          2.3736
       2603.5254          8.5000          8.4807       1136.1084         19.1123         18.9122         31.5563          1.4953          0.9991        -35.9242       4800.1387         78.9976          0.0351          2.3701          2.3658
       2603.6016          8.5000          8.4814       1126.7373         19.1476         18.9469         30.8372          1.4783          0.9990        -41.6604       4796.2900         78.9752          0.0305          2.3599          2.3556
       2603.6778          8.5000          8.4847       1118.4993         19.1265         18.9232         29.3443          1.4601          0.9991        -46.9509       4793.0830         78.9388          0.0264          2.3481          2.3438
       2603.7540          8.5000          8.4898       1113.2659         19.0398         18.8327         27.2938          1.4430          0.9993        -49.5115       4792.7251         78.9042          0.0232          2.3355          2.3312
       2603.8302          8.5000          8.4961       1111.8027         18.9161         18.7045         24.9298          1.4289          0.9998        -48.5750       4795.9199         78.8737          0.0213          2.3227          2.3184
       2603.9064          8.5000          8.5025       1113.5615         18.8267         18.6104         22.4543          1.4182          1.0001        -44.4025       4802.3535         78.8362          0.0208          2.3103          2.3061
       2603.9826          8.5000          8.5080       1117.3237         18.8339         18.6132         20.0625          1.4098          1.0003        -38.6701       4810.3101         78.8205          0.0216          2.2993          2.2951
       2604.0588          8.5000          8.5124       1122.6831         18.9806         18.7558         17.9092          1.4020          1.0003        -33.5133       4817.6533         78.8279          0.0235          2.2902          2.2861
       2604.1350          8.5000          8.5156       1129.7681         19.2569         19.0283         16.1093          1.3939          1.0001        -30.2650       4823.0884         78.8314          0.0263          2.2838          2.2796
       2604.2112          8.5000          8.5168       1137.9965         19.5791         19.3481         14.7292          1.3855          0.9998        -29.4209       4826.1743         78.8439          0.0294          2.2798          2.2756
       2604.2874          8.5000          8.5154       1146.5529         19.8245         19.5937         13.7788          1.3776          0.9996        -30.6201       4827.3169         78.8778          0.0324          2.2778          2.2737
       2604.3636          8.5000          8.5111       1154.4916         19.9062         19.6787         13.2008          1.3714          0.9995        -32.6827       4827.6899         78.9439          0.0346          2.2771          2.2730
       2604.4398          8.5000          8.5034       1160.7952         19.8214         19.6004         12.8923          1.3678          0.9996        -33.9746       4828.8521         78.9983          0.0358          2.2770          2.2728
